ID точки|Адрес|Тип Пункта|Название пункта приема/выдачи|Время работы|Широта|Долгота
8952-002|город Надым,Ямало-Ненецкий авт. округ, Ленинградский пр-кт, д. 22|ПВЗ|ПВЗ: PickPoint: 8952-002: ТЦ Надым|Пн-Пт: 10-19 (обед: 14-15); Сб: 10-14; Вс: Выходной|65.531224|72.526401
7801-003|город Санкт-Петербург,Ленинградская обл., Заневский пр-кт, д 38 литера А|Постамат|Постамат: PickPoint: 7801-003: ТК Нео|Ежедневно: 10-21|59.933014|30.431185
7801-004|город Санкт-Петербург,Ленинградская обл., Ленинский пр-кт, д 128 к 2 литера А|Постамат|Постамат: PickPoint: 7801-004: ТК Нарва|Ежедневно: 10-21|59.852425|30.268419
7701-001|город Москва,Московская обл., Ореховый б-р, д. 14, к. 3|Постамат|Постамат: PickPoint: 7701-001: ТЦ Домодедовский|Ежедневно: 10-22|55.609675|37.720106
7701-012|город Москва,Московская обл., Рязанский пр-кт, д. 2, к. 2|Постамат|Постамат: PickPoint: 7701-012: ТЦ Город|Ежедневно: 10-22|55.729833|37.731021
7701-006|город Москва,Московская обл., Алтуфьевское шоссе, д. 70, к. 1|Постамат|Постамат: PickPoint: 7701-006: ТЦ Маркос Молл|Ежедневно: 10-22|55.888202|37.588287
7701-009|город Москва,Московская обл., Люблинская ул., д. 153|Постамат|Постамат: PickPoint: 7701-009: ТК Л-153|Ежедневно: 10-22|55.658959|37.742099
7701-007|город Москва,Московская обл., Строгинский б-р, д. 1|Постамат|Постамат: PickPoint: 7701-007: ТЦ Дарья|Ежедневно: 10-21|55.806039|37.395572
7701-014|город Москва,Московская обл., Гарибальди ул., д. 23|Постамат|Постамат: PickPoint: 7701-014: ТЦ Панорама|Ежедневно: 10-21|55.671498|37.553792
7801-001|город Санкт-Петербург,Ленинградская обл., Энгельса пр-кт, д. 124, к. 1, лит. А|Постамат|Постамат: PickPoint: 7801-001: ТРК Вояж|Ежедневно: 10-21|60.039022|30.323495
5001-696|город Балашиха,Московская обл., Павлино мкр., д. 35, стр. 1|Постамат|Постамат: PickPoint: 5001-696: Торговый Центр|Ежедневно: 10-21|55.726543|37.969308
5905-175|город Пермь,Пермский край, Серпуховская ул., д. 17|Постамат|Постамат: Халва: 5905-175: Wildberries|Ежедневно: 10-21|57.969241|56.264864
5405-231|город Новосибирск,Новосибирская обл., Фасадная ул., д. 15/1|Постамат|Постамат: Халва: 5405-231: Faberlic|Пн-Вт: 11-19; Ср: 11-18; Чт: 11-19; Пт: 11-18; Сб: 11-15; Вс: Выходной|54.988727|82.81963
7702-729|город Москва,Московская обл., Новороссийская ул., д. 19|ПВЗ|ПВЗ: PickPoint: 7702-729|Ежедневно: 10-20|55.674926|37.758779
6415-031|город Энгельс,Саратовская обл., Ленина ул., д. 2|Постамат|Постамат: PickPoint: 6415-031: Магазин Глория|Ежедневно: 8-22|51.503023|46.117144
5002-959|город Волоколамск,Московская обл., Фабричная ул., д. 23|ПВЗ|ПВЗ: Ozon: 5002-959|Ежедневно: 9-21|56.062534|35.925101
5002-961|город Зеленоград,Московская обл., к. 2008|ПВЗ|ПВЗ: Ozon: 5002-961|Ежедневно: 9-21|55.973924|37.162818
7701-016|город Москва,Московская обл., Митинская ул., д. 40|Постамат|Постамат: PickPoint: 7701-016: ТЦ Митино|Ежедневно: 10-22|55.847832|37.360287
2301-004|город Краснодар,Краснодарский край, Стасова ул., д. 182/1|Постамат|Постамат: PickPoint: 2301-004: ТРК Меридиан|Ежедневно: 9-22|45.024961|39.044863
7801-014|город Санкт-Петербург,Ленинградская обл., ул Народная, д 3 к 1 литера А|Постамат|Постамат: PickPoint: 7801-014: ТК Штрих Код|Ежедневно: 10-21|59.878419|30.460739
7801-006|город Санкт-Петербург,Ленинградская обл., Комендантский пр-кт, д. 9, к. 2, лит. А|Постамат|Постамат: PickPoint: 7801-006: ТЦ Модный променад|Ежедневно: 10-21:30|60.004883|30.262912
7801-015|город Санкт-Петербург,Ленинградская обл., Гражданский пр-кт, д. 41Б|Постамат|Постамат: PickPoint: 7801-015: ТЦ Академ Парк|Ежедневно: 10-21|60.012174|30.398585
3801-001|город Иркутск,Иркутская обл., Свердлова ул., д. 36|Постамат|Постамат: PickPoint: 3801-001: ТЦ Сезон|Ежедневно: 9-19|52.286336|104.288512
4901-001|город Магадан,Магаданская обл., Основная трасса 2 км, д. 1|Постамат|Постамат: PickPoint: 4901-001: ТЦ Мегамаг|Ежедневно: 10-22|59.571473|150.809907
6301-001|город Самара,Самарская обл., Московское шоссе, д. 106|Постамат|Постамат: PickPoint: 6301-001: ТЦ Hoff|Ежедневно: 10-22|53.223658|50.189334
6101-003|город Ростов-на-Дону,Ростовская обл., Стачки пр-кт, д. 25|Постамат|Постамат: PickPoint: 6101-003: ТРЦ Сокол|Ежедневно: 9-22|47.210503|39.672472
7701-020|город Москва,Московская обл., Енисейская ул., д. 19, к. 1|Постамат|Постамат: PickPoint: 7701-020: ТЦ Радужный|Ежедневно: 10-22|55.869141|37.663233
7701-019|город Москва,Московская обл., МКАД, 87-й километр, д. 8|Постамат|Постамат: PickPoint: 7701-019: ТЦ Час Пик|Ежедневно: 10-22|55.898754|37.629088
7701-026|город Москва,Московская обл., Отрадная ул., д. 16|Постамат|Постамат: PickPoint: 7701-026: ТЦ Виктория|Круглосуточно|55.855004|37.613727
5401-001|город Новосибирск,Новосибирская обл., Красный пр-кт, д. 2/1|Постамат|Постамат: PickPoint: 5401-001: ТЦ Мегас|Ежедневно: 9-21|55.014685|82.926664
7701-028|город Москва,Московская обл., Дмитровское шоссе, д. 89|Постамат|Постамат: PickPoint: 7701-028: ТЦ XL|Ежедневно: 10-22|55.863991|37.545495
7701-030|город Москва,Московская обл., Адмирала Лазарева ул., д. 2|Постамат|Постамат: PickPoint: 7701-030: ТЦ Виктория|Круглосуточно|55.546964|37.543301
7801-007|город Санкт-Петербург,Ленинградская обл., Обуховской Обороны пр-кт, д. 116, к. 1Е|Постамат|Постамат: PickPoint: 7801-007: ТЦ Нева|Ежедневно: 10-21|59.864589|30.471879
7801-011|город Санкт-Петербург,Ленинградская обл., Типанова ул., д 21 литера А|Постамат|Постамат: PickPoint: 7801-011: ТЦ Питер|Ежедневно: 10-21|59.853397|30.339485
5401-004|город Новосибирск,Новосибирская обл., Карла Маркса пр-кт, д. 37/2|Постамат|Постамат: PickPoint: 5401-004: ТЦ МетроМаркет|Ежедневно: 10-21|54.988381|82.904592
2401-003|город Красноярск,Красноярский край, Партизана Железняка ул., д. 23|Постамат|Постамат: PickPoint: 2401-003: ТЦ Июнь|Ежедневно: 10-22|56.037155|92.934873
2401-004|город Красноярск,Красноярский край, им. Газеты Красноярский Рабочий пр-кт, д. 120|Постамат|Постамат: PickPoint: 2401-004: ТЦ Красноярье|Ежедневно: 8-23:59|56.004281|92.931201
7801-012|город Санкт-Петербург,Ленинградская обл., пр-кт Ветеранов, д 101 к 1 литера А|Постамат|Постамат: PickPoint: 7801-012: ТК Ульянка|Ежедневно: 8-23:59|59.834035|30.204845
6601-001|город Екатеринбург,Свердловская обл., ул Сулимова, стр 50|Постамат|Постамат: PickPoint: 6601-001: ТЦ Парк Хаус|Ежедневно: 10-22|56.863305|60.631554
6601-002|город Екатеринбург,Свердловская обл., Вайнера ул., д. 19|Постамат|Постамат: PickPoint: 6601-002: ТЦ Бум|Пн-Сб: 10-20; Вс: 10-19|56.83146|60.597113
7801-013|город Санкт-Петербург,Ленинградская обл., пр-кт Испытателей, д 5 к 1 литера А|Постамат|Постамат: PickPoint: 7801-013: ТЦ Сити Молл|Ежедневно: 10-22|60.003867|30.301522
5001-002|город Балашиха,Московская обл., Энтузиастов шоссе, д. 54А|Постамат|Постамат: PickPoint: 5001-002: ТРЦ Галион|Ежедневно: 10-21|55.795917|37.962871
7701-031|город Москва,Московская обл., Кожевническая ул., д. 7, стр. 1|Постамат|Постамат: PickPoint: 7701-031: ТЦ Кожевники|Пн-Сб: 10-20; Вс: 10-19|55.729828|37.645958
0201-003|город Уфа,Башкортостан респ., Свердлова ул., д. 90|Постамат|Постамат: PickPoint: 0201-003: ТЦ Свердловский|Пн-Пт: 9-21; Сб-Вс: 9-20|54.725123|55.938037
5002-962|город Зеленоград,Московская обл., к. 1815|ПВЗ|ПВЗ: Ozon: 5002-962|Ежедневно: 9-21|55.982158|37.163138
5002-963|город Зеленоград,Московская обл., Андреевка ул., вл. 13, стр. 2|ПВЗ|ПВЗ: Ozon: 5002-963|Пн-Пт: 10-19 (обед: 14-15); Сб-Вс: Выходной|55.981903|37.14681
3802-078|город Иркутск,Иркутская обл., Лермонтова ул., д. 343/7|ПВЗ|ПВЗ: Мегафон: 3802-078|Ежедневно: 10-19|52.235278|104.287245
6502-019|город Южно-Сахалинск,Сахалинская обл., имени И.П. Фархутдинова ул., д. 3|ПВЗ|ПВЗ: Мегафон: 6502-019: ТРЦ Аллея|Ежедневно: 10-21|46.908244|142.742736
7702-027|город Москва,Московская обл., Ярцевская ул., д. 25А|ПВЗ|ПВЗ: PickPoint: 7702-027: ТЦ Трамплин|Ежедневно: 9-22|55.741047|37.415331
1601-003|город Казань,Татарстан респ., ул Юлиуса Фучика, д 90а|Постамат|Постамат: PickPoint: 1601-003: ТЦ Франт|Ежедневно: 10-22|55.763404|49.23337
4402-036|город Кострома,Костромская обл., Китицынская ул., д. 9|ПВЗ|ПВЗ: Ozon: 4402-036|Ежедневно: 9-20|57.731643|40.915144
5001-697|город Тучково,Московская обл., Кирова ул., д. 1|Постамат|Постамат: PickPoint: 5001-697: ТЦ Эдельвейс|Ежедневно: 8:30-22|55.600277|36.472409
7801-295|город Санкт-Петербург,Ленинградская обл., пр-кт Науки, д 10 к 1 литера А|Постамат|Постамат: PickPoint: 7801-295: Фотокопицентр|Пн-Пт: 10-20; Сб-Вс: 10-19|60.015237|30.3905
2102-011|город Чебоксары,Чувашия респ., Ленина пр-кт, д. 39, оф. 5|ПВЗ|ПВЗ: PickPoint: 2102-011|Пн-Пт: 8-20; Сб: 10-17; Вс: Выходной|56.119995|47.256467
0201-002|город Уфа,Башкортостан респ., Менделеева ул., д. 137|Постамат|Постамат: PickPoint: 0201-002: ТЦ Иремель|Ежедневно: 10-21|54.713394|55.993571
2301-001|город Краснодар,Краснодарский край, Красная ул., д. 43|Постамат|Постамат: PickPoint: 2301-001: Краснодарский дом книги|Пн-Пт: 9-20; Сб-Вс: 10-19|45.026217|38.970485
2301-002|город Краснодар,Краснодарский край, Уральская ул., д. 99|Постамат|Постамат: PickPoint: 2301-002: ТРК Вега|Ежедневно: 10-21|45.038138|39.085844
6101-001|город Ростов-на-Дону,Ростовская обл., Зорге ул., д. 33|Постамат|Постамат: PickPoint: 6101-001: ТРЦ Талер|Ежедневно: 10-22|47.229201|39.628505
6901-001|город Тверь,Тверская обл., Цанова б-р, д. 8|Постамат|Постамат: PickPoint: 6901-001: ТЦ Вавилон|Ежедневно: 10-22|56.830005|35.917565
5501-001|город Омск,Омская обл., Дианова ул., д. 14|Постамат|Постамат: PickPoint: 5501-001: АТ Маркет|Ежедневно: 10-21|54.995611|73.250449
5501-004|город Омск,Омская обл., 70 лет Октября ул., д. 19|Постамат|Постамат: PickPoint: 5501-004: ТК Festival City|Ежедневно: 10-21|54.980902|73.320978
2405-168|город Красноярск,Красноярский край, Академика Киренского ул., д. 22|Постамат|Постамат: PickPoint: 2405-168: Русский Разгуляйка|Ежедневно: 8-23|55.993036|92.797209
3901-029|город Калининград,Калининградская обл., Каштановая Аллея ул., 97|Постамат|Постамат: PickPoint: 3901-029: SPAR|Ежедневно: 8-23|54.72659|20.463676
7701-981|город Москва,Московская обл., Открытое шоссе, д. 4, стр. 1|Постамат|Постамат: PickPoint: 7701-981: РЦ Место встречи Янтарь|Ежедневно: 9-23|55.80909|37.72997
1295-007|город Медведево,Марий Эл респ., Терешковой ул., д. 19|Постамат|Постамат: Халва: 1295-007: Магнит Косметик|Ежедневно: 9-20:30|56.629834|47.814704
1805-075|город Ижевск,Удмуртская респ., Широкий пер., д. 53|Постамат|Постамат: Халва: 1805-075: ТРЦ Сигма|Ежедневно: 10-21|56.857436|53.211293
7205-062|город Тюмень,Тюменская обл., Велижанская ул., д. 68|Постамат|Постамат: Халва: 7205-062: Магнит Косметик|Ежедневно: 10-22|57.190563|65.581723
2635-009|город Ессентуки,Ставропольский край, Октябрьская ул., д. 422А|Постамат|Постамат: Халва: 2635-009: Магнит Косметик|Ежедневно: 9-21|44.046593|42.887979
5905-100|город Пермь,Пермский край, Генерала Черняховского ул., д. 49|Постамат|Постамат: Халва: 5905-100: Магнит Косметик|Пн-Пт: 9-20; Сб: 9-16; Вс: 10-16|58.084706|56.406007
5615-023|город Орск,Оренбургская обл., Беляева ул., д. 1|Постамат|Постамат: Халва: 5615-023: Магнит Косметик|Ежедневно: 9-21|51.257458|58.433056
5615-022|город Орск,Оренбургская обл., Краматорская ул., д. 8А/18|Постамат|Постамат: Халва: 5615-022: Магнит Косметик|Ежедневно: 9-21:30|51.224049|58.495539
5005-631|город Зарайск,Московская обл., 1-й мкр., д. 35|Постамат|Постамат: Халва: 5005-631: Магнит Косметик|Ежедневно: 9-21|54.755721|38.887341
7415-042|город Магнитогорск,Челябинская обл., Ленина пр-кт, д. 145|Постамат|Постамат: Халва: 7415-042: Магнит Косметик|Ежедневно: 9:30-21|53.36217|58.991545
7415-040|город Магнитогорск,Челябинская обл., Ворошилова ул., д. 10|Постамат|Постамат: Халва: 7415-040: Магнит Косметик|Ежедневно: 10-21|53.374055|58.980977
4395-012|город Кирово-Чепецк,Кировская обл., Кирова пр-кт, д. 30|Постамат|Постамат: Халва: 4395-012: Магнит Косметик|Ежедневно: 9-21|58.555854|50.04086
6601-004|город Екатеринбург,Свердловская обл., Сибирский тракт, д 2|Постамат|Постамат: PickPoint: 6601-004: ТРК Комсомолл|Ежедневно: 10-22|56.829419|60.671208
7701-033|город Москва,Московская обл., Озерная ул., д. 42|Постамат|Постамат: PickPoint: 7701-033: ТЦ Мичуринский|Ежедневно: 9-22|55.67154|37.445552
1601-005|город Казань,Татарстан респ., Николая Ершова ул., д. 1 А|Постамат|Постамат: PickPoint: 1601-005: ГТРК Корстон|Круглосуточно|55.793874|49.149566
6601-005|город Екатеринбург,Свердловская обл., ул 40-летия Октября, стр 75|Постамат|Постамат: PickPoint: 6601-005:ТЦ Калинка|Ежедневно: 9-21|56.904044|60.598374
5001-004|город Зеленоград,Московская обл., к 1627|Постамат|Постамат: PickPoint: 5001-004: Универсам|Ежедневно: 8-23|55.970851|37.152345
0201-004|город Уфа,Башкортостан респ., Комсомольская ул., д. 112|Постамат|Постамат: PickPoint: 0201-004: ТЦ Июнь|Ежедневно: 10-22|54.752422|56.007624
7201-011|город Тюмень,Тюменская обл., Алебашевская ул., д. 19|Постамат|Постамат: PickPoint: 7201-011: ТЦ Зеленый берег|Ежедневно: 10-22|57.170336|65.567431
4001-001|город Калуга,Калужская обл., Кирова ул., д. 39|Постамат|Постамат: PickPoint: 4001-001: ТОЦ Европейский|Ежедневно: 10-20|54.513624|36.266316
7802-338|город Санкт-Петербург,Ленинградская обл., Федора Абрамова ул., д. 8, к. 3|ПВЗ|ПВЗ: PickPoint: 7802-338|Ежедневно: 10-21|60.075791|30.339396
4705-150|город Янино-1,Ленинградская обл., Шоссейная ул., д. 57|Постамат|Постамат: Халва: Пекарня Бублик|Ежедневно: 8-22|59.946982|30.564162
5015-173|город Домодедово,Московская обл., Каширское шоссе, д. 63|Постамат|Постамат: Халва: 5015-173: Совкомбанк|Пн-Пт: 10-19; Сб: 10-17; Вс: Выходной|55.432431|37.768044
5015-174|город Московский,Московская обл., 3-й мкр., д. 1Б|Постамат|Постамат: Халва: 5015-174: Дикси|Круглосуточно|55.596429|37.344161
9905-295|город Москва,Московская обл., Подольских Курсантов ул., д. 26, стр. 1|Постамат|Постамат: Халва: ТЦ Selgros|Ежедневно: 7-23|55.592464|37.632089
9905-296|город Москва,Московская обл., Большая Очаковская ул., д. 10, к. 1|Постамат|Постамат: Халва: 9905-296: Ozon|Ежедневно: 10-21|55.688639|37.463008
2405-169|город Красноярск,Красноярский край, Говорова ул., д. 42|Постамат|Постамат: Халва: 2405-169: Магазин Залихватский расколбас|Пн-Сб: 8-20; Вс: 8-18|55.999299|93.025656
3405-094|город Волгоград,Волгоградская обл., Историческая ул., д. 175|Постамат|Постамат: Халва: 3405-094: Ашан|Ежедневно: 7-23:59|48.75658|44.477952
2405-170|город Красноярск,Красноярский край, Тельмана ул., д. 19|Постамат|Постамат: Халва: 2405-170: Магазин Залихватский расколбас|Пн-Сб: 8-20; Вс: 8-18|56.052909|92.975129
2405-171|город Красноярск,Красноярский край, Молокова ул., д. 28|Постамат|Постамат: Халва: 2405-171: Ozon|Ежедневно: 10-21|56.044997|92.909704
5905-176|город Пермь,Пермский край, Яблочкова ул., д. 17/2|Постамат|Постамат: Халва: 5905-176: Wildberries|Ежедневно: 10-21|57.970835|56.225949
7801-017|город Санкт-Петербург,Ленинградская обл., ул Марата, д 53 литера А|Постамат|Постамат: PickPoint: 7801-017: ТРК Ямской|Пн-Сб: 10-20; Вс: 10-19|59.922971|30.349645
6611-001|город Верхняя Пышма,Свердловская обл., Успенский пр-кт, д. 127|Постамат|Постамат: PickPoint: 6611-001: ТЦ Город VIP|Ежедневно: 10-21|56.981396|60.54592
3601-001|город Воронеж,Воронежская обл., Средне-Московская ул., д. 32Б|Постамат|Постамат: PickPoint: 3601-001: ТЦ Мир|Ежедневно: 10-21|51.669277|39.196335
6695-011|город Верхняя Салда,Свердловская обл., Энгельса ул., д. 87, к. 1|Постамат|Постамат: Халва: 6695-011: Фикс-Прайс|Ежедневно: 9-21|58.048318|60.579595
4305-044|город Киров,Кировская обл., Московская ул., д. 135|Постамат|Постамат: Халва: 4305-044: ТЦ Малахит|Ежедневно: 10-20|58.603281|49.621247
1205-044|город Йошкар-Ола,Марий Эл респ., Прохорова ул., д. 14Б|Постамат|Постамат: Халва: 1205-044: Магнит Косметик|Ежедневно: 9-20:30|56.636304|47.842868
5005-632|город Краснозаводск,Московская обл., 50 лет Октября ул., д. 9|Постамат|Постамат: Халва: 5005-632: Магнит Косметик|Ежедневно: 9:30-21|56.433969|38.248531
7415-043|город Магнитогорск,Челябинская обл., Карла Маркса пр-кт, д. 164|Постамат|Постамат: Халва: 7415-043: Магнит Косметик|Ежедневно: 9:30-21|53.384813|58.976996
7705-733|город Москва,Московская обл., Нижегородская ул., д. 72/2|Постамат|Постамат: Халва: 7705-733: Фикс-Прайс|Ежедневно: 9-21|55.733045|37.710946
4205-057|город Кемерово,Кемеровская обл., Халтурина ул., д. 35А|Постамат|Постамат: Халва: 4205-057: БегеМаг|Ежедневно: 8-23|55.409977|86.054211
6195-014|город Новошахтинск,Ростовская обл., Харьковская ул., д.78Ж|Постамат|Постамат: Халва: 6195-014: Фикс-Прайс|Ежедневно: 9-21|47.785534|39.913082
7701-186|город Москва,Московская обл., Сходненская ул., д. 25|Постамат|Постамат: PickPoint: 7701-186: ТЦ Сходненская 25|Ежедневно: 10-21|55.845501|37.438754
5005-633|город Сергиев Посад,Московская обл., Хотьковский проезд, д. 13Б|Постамат|Постамат: Халва: 5005-633: ТД Славига|Ежедневно: 10-21|56.29498|38.12027
7701-189|город Москва,Московская обл., Череповецкая ул., д. 4А|Постамат|Постамат: PickPoint: 7701-189: Пятерочка|Пн-Пт: 10-19:30; Сб: 10-19; Вс: 10-18|55.897988|37.565793
5002-039|город Долгопрудный,Московская обл., Пацаева пр-кт, д. 15А|ПВЗ|ПВЗ: PickPoint: 5002-039: Магазин Вектор|Ежедневно: 10-20|55.948397|37.494772
6301-003|город Самара,Самарская обл., Гагарина ул., д. 99|Постамат|Постамат: PickPoint: 6301-003: ТЦ Самара-М|Ежедневно: 8-23|53.200086|50.199089
3601-002|город Воронеж,Воронежская обл., Московский пр-кт, д. 129/1|Постамат|Постамат: PickPoint: 3601-002: ТРЦ Московский проспект|Ежедневно: 10-22|51.717747|39.177533
7702-263|город Москва,Московская обл., Измайловский б-р, д. 43|ПВЗ|ПВЗ: PickPoint: 7702-263|Пн-Пт: 10-20; Сб-Вс: 11-18|55.79725|37.798107
6605-251|город Екатеринбург,Свердловская обл., Светлый мкр., д. 6|Постамат|Постамат: Халва: 6605-251: Зоомагазин|Ежедневно: 10-22|56.780398|60.700538
5905-177|город Пермь,Пермский край, Спешилова ул., д. 114|Постамат|Постамат: Халва: 5905-177: ТРЦ СпешиLove|Ежедневно: 10-22|58.03957|56.190906
7805-511|город Санкт-Петербург,Ленинградская обл., Плесецкая ул., д. 10|Постамат|Постамат: Халва: 7805-511: Винлаб|Ежедневно: 10-22|60.034668|30.218346
5002-967|город Балашиха,Московская обл., Кольцевая ул., д. 5|ПВЗ|ПВЗ: Ozon: 5002-967|Ежедневно: 9-21|55.823237|37.879332
7701-038|город Москва,Московская обл., 1-я Квесисская ул., д. 18|Постамат|Постамат: PickPoint: 7701-038: ТК Бутырский|Ежедневно: 9-21|55.794139|37.578817
6301-004|город Самара,Самарская обл., Демократическая ул., д. 7|Постамат|Постамат: PickPoint: 6301-004: Пятерочка|Пн-Сб: 9-19:30; Вс: 9-18:30|53.262209|50.217683
6605-037|город Екатеринбург,Свердловская обл., Космонавтов пр-кт, д. 54|Постамат|Постамат: PickPoint: 6605-037: ТЦ Космос|Пн-Сб: 10-20; Вс: 10-19|56.89202|60.614722
4215-030|город Новокузнецк,Кемеровская обл., Сибиряков-Гвардейцев ул., д. 2|Постамат|Постамат: PickPoint: 4215-030: ТОЦ Cascade Building|Ежедневно: 9-20|53.751232|87.103627
2715-005|город Комсомольск-на-Амуре,Хабаровский край, Комсомольская ул., д. 73|Постамат|Постамат: PickPoint: 2715-005|Ежедневно: 9-22|50.535343|136.996288
2901-001|город Архангельск,Архангельская обл., Ленинградский пр-кт, д. 255|Постамат|Постамат: PickPoint: 2901-001: ТЦ Петромост|Ежедневно: 10-21|64.510031|40.663696
5691-001|город Бузулук,Оренбургская обл., Комсомольская ул., д. 81|Постамат|Постамат: PickPoint: 5691-001: ТРЦ Север|Ежедневно: 10-22|52.788492|52.263705
2111-001|город Новочебоксарск,Чувашия респ., Винокурова ул., д. 70А|Постамат|Постамат: PickPoint: 2111-001: Универсам|Ежедневно: 9-20|56.115574|47.451678
7415-044|город Магнитогорск,Челябинская обл., 50-летия Магнитки ул., д. 38А|Постамат|Постамат: Халва: 7415-044: Магнит Косметик|Ежедневно: 10-20:30|53.359657|58.972997
1001-001|город Петрозаводск,Карелия респ., Правды ул., д. 38Б|Постамат|Постамат: PickPoint: 1001-001: ТЦ Лотос Центр|Ежедневно: 9-20|61.776414|34.390102
5001-006|город Реутов,Московская обл., Октября ул., вл. 10|Постамат|Постамат: PickPoint: 5001-006: ТРЦ Экватор|Ежедневно: 10-22|55.751809|37.859055
5002-968|город Реутов,Московская обл., Комсомольская ул., д. 21, к. 1|ПВЗ|ПВЗ: Яндекс Маркет: 5002-968|Ежедневно: 9-21|55.756202|37.850178
7702-731|город Москва,Московская обл., Бауманская ул., д. 43/1, стр. 1, офис 17|ПВЗ|ПВЗ: PickPoint: 7702-731|Пн-Пт: 10-20; Сб-Вс: 12-19|55.770107|37.679637
1105-030|город Сыктывкар,Коми респ., Пушкина ул., д. 145|Постамат|Постамат: Халва: 1105-030: Магнит Косметик|Ежедневно: 9-21|61.644475|50.819923
1105-029|город Сыктывкар,Коми респ., Первомайская ул., д. 90, к. 3|Постамат|Постамат: Халва: 1105-029: ТЦ Майский|Ежедневно: 9-20:30|61.663532|50.833452
4605-063|город Курск,Курская обл., Бойцов 9 Дивизии ул., д. 195А|Постамат|Постамат: Халва: 4605-063: Магнит Косметик|Ежедневно: 9-21|51.723137|36.135577
7802-568|город Санкт-Петербург,Ленинградская обл., линия 26-я В.О., д 7 стр 1|ПВЗ|ПВЗ: Ozon: 7802-568|Ежедневно: 9-21|59.930654|30.262304
5002-972|город ВНИИССОК,Московская обл., Дружбы ул., д. 6|ПВЗ|ПВЗ: Ozon: 5002-972|Ежедневно: 10-22|55.65884|37.196972
2412-016|город Норильск,Красноярский край, Ленинский пр-кт, д. 28, к. 2|ПВЗ|ПВЗ: PickPoint: 2412-016: ТЦ Надежда|Ежедневно: 12-19|69.35084|88.198644
5002-971|город Ногинск,Московская обл., Рогожская ул., д. 39|ПВЗ|ПВЗ: Ozon: 5002-971|Ежедневно: 10-21|55.859114|38.449519
7105-082|город Тула,Тульская обл., Арсенальная ул., д. 2А|Постамат|Постамат: PickPoint: 7105-082: ТЦ Арсенал|Ежедневно: 9-21|54.212166|37.609676
3192-021|город Губкин,Белгородская обл., Преображенская ул., д. 7|ПВЗ|ПВЗ: Ситилинк: 3192-021: ТЦ Спутник|Ежедневно: 9-21|51.277847|37.499974
5405-165|город Новосибирск,Новосибирская обл., Дуси Ковальчук ул., д. 75/3|Постамат|Постамат: PickPoint: 5405-165: ТЦ Вереница|Ежедневно: 8-20|55.05397|82.893732
5912-012|город Березники,Пермский край, Пятилетки ул., д. 50|ПВЗ|ПВЗ: Ситилинк: 5912-012|Ежедневно: 10-19:45 (обед: 14-15)|59.405164|56.807312
9902-118|город Москва,Московская обл., Миклухо-Маклая ул., д. 28А|ПВЗ|ПВЗ: Ситилинк: 9902-118: ТЦ Вау|Ежедневно: 10-21 (обед: 14-15)|55.642199|37.520491
5502-122|город Омск,Омская обл., 10 лет Октября ул., д. 113|ПВЗ|ПВЗ: Ситилинк: 5502-122: ТЦ Арбатъ|Ежедневно: 10-19:45 (обед: 13-14)|54.985772|73.405312
5502-123|город Омск,Омская обл., Челюскинцев 4-я ул., д. 66/1|ПВЗ|ПВЗ: Ситилинк: 5502-123: ТК Амурский|Ежедневно: 9-20:45 (обед: 13-14)|55.025483|73.416317
3301-015|город Владимир,Владимирская обл., Дуброва Нижняя ул., д. 13|Постамат|Постамат: PickPoint: 3301-015: ТЦ Орбита|Ежедневно: 8-22|56.106017|40.363417
5001-698|город Наро-Фоминск,Московская обл., Свободы пл., д. 4|Постамат|Постамат: PickPoint: 5001-698: Магазин Первая свежесть|Ежедневно: 9-22|55.386687|36.728904
7295-002|город Тобольск,Тюменская обл., 15 мкр., д. 30|Постамат|Постамат: Халва: 7295-002: Магнит Косметик|Ежедневно: 8:30-20:30|58.224309|68.301504
5905-101|город Пермь,Пермский край, Мира ул., д. 103|Постамат|Постамат: Халва: 5905-101: Магнит Косметик|Ежедневно: 9:30-22|57.970123|56.159427
5205-124|город Нижний Новгород,Нижегородская обл., Планетная ул., д. 35|Постамат|Постамат: Халва: 5205-124: Аптека Долголет|Ежедневно: 8-22|56.379778|43.794877
4605-064|город Курск,Курская обл., Дружбы пр-кт, д. 10|Постамат|Постамат: Халва: 4605-064: Магнит Косметик|Ежедневно: 9:30-21:30|51.741503|36.136578
5901-040|город Пермь,Пермский край, Уральская ул., д. 63, к. 5|Постамат|Постамат: PickPoint: 5901-040: ТЦ Гудвин|Пн-Сб: 10-20; Вс: 11-19|58.030113|56.301767
7805-097|город Санкт-Петербург,Ленинградская обл., Пограничника Гарькавого ул., д. 20, к. 1|Постамат|Постамат: PickPoint: 7805-097: Пятерочка|Ежедневно: 9-22|59.839732|30.147184
7801-145|город Санкт-Петербург,Ленинградская обл., Невский пр-кт, д. 35|Постамат|Постамат: PickPoint: 7801-145: ТЦ Большой Гостиный Двор|Ежедневно: 11-21|59.934172|30.332631
7801-146|город Санкт-Петербург,Ленинградская обл., Васи Алексеева ул., д 6 литера А|Постамат|Постамат: PickPoint: 7801-146: ТРК Румба|Ежедневно: 10-22|59.880094|30.26574
7401-001|город Челябинск,Челябинская обл., Молдавская ул., д. 16|Постамат|Постамат: PickPoint: 7401-001: ТРЦ Фокус|Ежедневно: 10-22|55.190474|61.303529
7801-021|город Санкт-Петербург,Ленинградская обл., Белы Куна ул., д 3 литера А|Постамат|Постамат: PickPoint: 7801-021: ТРЦ Международный|Ежедневно: 10-22|59.870091|30.379388
7705-736|город Москва,Московская обл., Митинская ул., д. 40, к. 1|Постамат|Постамат: Халва: 7705-736: Оптика Dr.Oculus|Ежедневно: 8-22|55.848004|37.361474
7705-735|город Москва,Московская обл., Лобненская ул., д. 6|Постамат|Постамат: Халва: Пятерочка: Лобненская|Ежедневно: 9-23|55.890514|37.537626
5002-585|город Зеленоград,Московская обл., к. 2022|ПВЗ|ПВЗ: PickPoint: 5002-585|Ежедневно: 9-21|55.976493|37.168172
7701-917|город Москва,Московская обл., Декабристов ул., д. 38, к. 1|Постамат|Постамат: PickPoint: 7701-917: Wildberries|Ежедневно: 10-21|55.859872|37.617078
3802-079|город Иркутск,Иркутская обл., Байкальская ул., д. 162|ПВЗ|ПВЗ: Lamoda: 3802-079|Ежедневно: 10-21|52.26229|104.314311
7802-569|город Кудрово,Ленинградская обл., Европейский пр-кт, д. 18, к. 1|ПВЗ|ПВЗ: Lamoda: 7802-569|Ежедневно: 10-21|59.908889|30.516068
5001-878|город Звенигород,Московская обл., р-н Восточный, мкр 3, д 4|Постамат|Постамат: PickPoint: 5001-878: Магазин Все для дома|Ежедневно: 9-20|55.723759|36.871786
5001-699|город Подольск,Московская обл., Академика Доллежаля ул., д. 42|Постамат|Постамат: PickPoint: 5001-699: Торговый Центр|Ежедневно: 10-22|55.413361|37.480912
7701-044|город Москва,Московская обл., Инициативная ул., д. 11|Постамат|Постамат: PickPoint: 7701-044: Дикси|Ежедневно: 8-23|55.715967|37.456524
5002-973|город Мытищи,Московская обл., Сукромка ул., д. 5|ПВЗ|ПВЗ: Ситилинк: 5002-973: ТЦ Самолет|Ежедневно: 10-20 (обед: 14-15)|55.902499|37.714678
5001-150|город Ступино,Московская обл., Бахарева ул., д. 17|Постамат|Постамат: PickPoint: 5001-150: ТЦ на Бахарева|Ежедневно: 9-21|54.886202|38.059301
6602-184|город Екатеринбург,Свердловская обл., Машиностроителей ул., д. 18|ПВЗ|ПВЗ: Халва: 6602-184: Совкомбанк|Пн-Пт: 10-19 (обед: 13-14); Сб: 10-16; Вс: Выходной|56.884591|60.572043
2401-027|город Красноярск,Красноярский край, Партизана Железняка ул., д. 61|Постамат|Постамат: PickPoint: 2401-027: Аптека|Ежедневно: 9-22|56.040445|92.94164
7802-570|город Санкт-Петербург,Ленинградская обл., Заневский пр-кт, д. 23|ПВЗ|ПВЗ: Халва: 7802-570: Совкомбанк|Пн-Пт: 10-19 (обед: 13-14); Сб: 10-17 (обед: 13-13:30); Вс: Выходной|59.929348|30.415141
7602-043|город Ярославль,Ярославская обл., Свердлова ул., д. 13|ПВЗ|ПВЗ: PickPoint: 7602-043|Пн-Пт: 9-20; Сб-Вс: 10-20|57.62934|39.879413
3602-123|город Воронеж,Воронежская обл., Адмирала Чурсина ул., д. 6|ПВЗ|ПВЗ: Ozon: 3602-123|Ежедневно: 9-21|51.635895|39.295751
5205-039|город Нижний Новгород,Нижегородская обл., Черняховского ул., д. 19|Постамат|Постамат: PickPoint: 5205-039: Продукты|Круглосуточно|56.337555|43.842354
3805-005|город Иркутск,Иркутская обл., Баррикад ул., д. 129/14|Постамат|Постамат: PickPoint: 3805-005|Ежедневно: 9-22|52.291432|104.326853
6305-034|город Самара,Самарская обл., Белорусская ул., д. 99|Постамат|Постамат: PickPoint: 6305-034: Пятерочка|Ежедневно: 8-23|53.144811|50.041458
1905-015|город Абакан,Хакасия респ., Карла Маркса ул., д. 28|Постамат|Постамат: PickPoint: 1905-015: Магазин Околица|Ежедневно: 9-21|53.726644|91.439177
5201-005|город Нижний Новгород,Нижегородская обл., Чаадаева ул., д. 5|Постамат|Постамат: PickPoint: 5201-005: ТЦ Сокол|Ежедневно: 10-20|56.329026|43.854324
5001-263|город Ногинск,Московская обл., Соборная ул., д. 12В|Постамат|Постамат: PickPoint: 5001-263: ТЦ Остров|Ежедневно: 10-21|55.853213|38.441938
7801-296|город Санкт-Петербург,Ленинградская обл., Ленсовета ул., д 41 литера А|Постамат|Постамат: PickPoint: 7801-296: Магнит|Ежедневно: 8:30-22:30|59.842998|30.32946
7801-297|город Санкт-Петербург,Ленинградская обл., Лермонтовский пр-кт, д 1/44 литера А|Постамат|Постамат: PickPoint: 7801-297: Магнит|Ежедневно: 8-21:30|59.924891|30.290326
7705-131|город Москва,Московская обл., Солнцевский пр-кт, д. 5|Постамат|Постамат: PickPoint: 7705-131: Пятерочка|Ежедневно: 7-23|55.651412|37.398307
7701-002|город Москва,Московская обл., Тараса Шевченко наб., д. 23 А|Постамат|Постамат: PickPoint: 7701-002: ТПМ Багратион|Ежедневно: 5:30-2|55.746278|37.545895
8605-015|город Сургут,Ханты-Мансийский авт. округ-Югра, Энтузиастов ул., д. 47/1|Постамат|Постамат: PickPoint: 8605-015: ТЦ Снежинка|Ежедневно: 10-20|61.259749|73.362133
4701-001|город Колпино,Ленинградская обл., ул Октябрьская, д 8 литера А|Постамат|Постамат: PickPoint: 4701-001: ТРК ОКА|Ежедневно: 9-23|59.738869|30.623096
2705-025|город Хабаровск,Хабаровский край, Горького ул., д. 60|Постамат|Постамат: PickPoint: 2705-025|Ежедневно: 8-23|48.477416|135.163877
6495-004|город Вольск,Саратовская обл., Октябрьская ул., д. 94|Постамат|Постамат: PickPoint: 6495-004: Гулливер|Ежедневно: 8-22|52.042612|47.395235
7801-023|город Санкт-Петербург,Ленинградская обл., ул Боткинская, д 3 к 1 литера А|Постамат|Постамат: PickPoint: 7801-023: ТК Тукан|Ежедневно: 10-21|59.958125|30.354608
8921-001|город Новый Уренгой,Ямало-Ненецкий авт. округ, Губкина ул., д. 5|Постамат|Постамат: PickPoint: 8921-001: ТЦ Вертолет|Ежедневно: 9-22|66.091513|76.675458
8921-002|город Новый Уренгой,Ямало-Ненецкий авт. округ, Подшибякина ул., д. 1/2 А,|Постамат|Постамат: PickPoint: 8921-002: ТЦ Гудзон|Ежедневно: 10-22|66.114703|76.67254
7701-041|город Москва,Московская обл., Волгоградский пр-кт, д. 42, к. 23|Постамат|Постамат: PickPoint: 7701-041: GS Парк|Ежедневно: 8-22|55.710265|37.708238
1601-062|город Казань,Татарстан респ., Победы пр-кт, д. 141|Постамат|Постамат: PickPoint: 1601-062: ТЦ Мега|Ежедневно: 10-22|55.780957|49.213134
6601-091|город Екатеринбург,Свердловская обл., ул Толмачева, д 22|Постамат|Постамат: PickPoint: 6601-091: ТЦ SILA VOLI|Ежедневно: 10-21|56.840552|60.609458
2425-002|город Канск,Красноярский край, Коростелева ул., д. 21|Постамат|Постамат: PickPoint: 2425-002: ТЦ Волков и Волков|Ежедневно: 9-18|56.202481|95.701893
2705-024|город Хабаровск,Хабаровский край, Стрельникова ул., д. 16А|Постамат|Постамат: PickPoint: 2705-024|Ежедневно: 8-23|48.536088|135.036793
6605-036|город Екатеринбург,Свердловская обл., Ильича ул., д. 50|Постамат|Постамат: PickPoint: 6605-036: Верный|Ежедневно: 9-22|56.898344|60.609432
7701-927|город Москва,Московская обл., Всеволода Вишневского ул., д. 5/6|Постамат|Постамат: PickPoint: 7701-927: Гастроном|Ежедневно: 9-21|55.812266|37.573393
8631-001|город Нижневартовск,Ханты-Мансийский авт. округ-Югра, Омская ул., д. 56|Постамат|Постамат: PickPoint: 8631-001: ТЦ Славянский двор|Ежедневно: 9-21|60.930754|76.591563
2301-046|город Краснодар,Краснодарский край, Лизы Чайкиной ул., д. 2/1|Постамат|Постамат: PickPoint: 2301-046: Магнит|Ежедневно: 8-23:59|45.025215|39.058138
7701-688|город Москва,Московская обл., Ленинская слобода ул., д. 26, стр. 2|Постамат|Постамат: PickPoint: 7701-688: ТЦ Глобал Молл|Ежедневно: 10-22|55.712142|37.656631
5001-282|город Хотьково,Московская обл., Михеенко ул., д. 12|Постамат|Постамат: PickPoint: 5001-282: Пятерочка|Ежедневно: 8-22|56.251308|37.978972
5001-283|город Зеленоград,Московская обл., Георгиевский пр-кт, д. 37, к. 2|Постамат|Постамат: PickPoint: 5001-283: Пятерочка|Ежедневно: 7-23|55.966465|37.149855
5001-284|город Сходня,Московская обл., Микояна ул., д. 25, к. 2|Постамат|Постамат: PickPoint: 5001-284: Пятерочка|Ежедневно: 8-22|55.958638|37.292683
5001-285|город Сходня,Московская обл., 4-й Мичуринский тупик, д. 5|Постамат|Постамат: PickPoint: 5001-285: Пятерочка|Ежедневно: 9-22|55.944007|37.301972
5001-286|город Сергиев Посад,Московская обл., Ярославское шоссе, д. 58|Постамат|Постамат: PickPoint: 5001-286: Пятерочка|Ежедневно: 8-22|56.337415|38.165082
5001-287|город Старбеево,Московская обл., Карла Маркса ул., д. 2|Постамат|Постамат: PickPoint: 5001-287: Пятерочка|Ежедневно: 8-22:30|55.918104|37.470749
5001-289|город Красногорск,Московская обл., Железнодорожный пер., д. 1А|Постамат|Постамат: PickPoint: 5001-289: ТЦ Красногорское РАЙПО|Ежедневно: 8-23|55.817053|37.340292
7701-348|город Москва,Московская обл., Героев Панфиловцев ул., д. 39, к. 1|Постамат|Постамат: PickPoint: 7701-348: Пятерочка|Ежедневно: 8-23|55.854769|37.410761
7701-321|город Москва,Московская обл., Ивана Сусанина ул., д. 4, к. 1|Постамат|Постамат: PickPoint: 7701-321: Пятерочка|Ежедневно: 8-23|55.867474|37.526116
7701-322|город Москва,Московская обл., Касимовская ул., д. 4|Постамат|Постамат: PickPoint: 7701-322: Пятерочка|Ежедневно: 8-23|55.598131|37.653782
7701-325|город Москва,Московская обл., Волгоградский пр-кт, д. 152, стр. 1|Постамат|Постамат: PickPoint: 7701-325: Пятерочка|Ежедневно: 9-23|55.701408|37.791365
7701-332|город Москва,Московская обл., Свободы ул., д. 32|Постамат|Постамат: PickPoint: 7701-332: Пятерочка|Ежедневно: 8-22|55.842384|37.455915
5001-700|город Королёв,Московская обл., Ленинская ул., д. 12|Постамат|Постамат: PickPoint: 5001-700: Зоомагазин|Ежедневно: 10-20|55.928688|37.845035
7701-334|город Москва,Московская обл., Коломенская ул., д. 23, к. 2|Постамат|Постамат: PickPoint: 7701-334: Пятерочка|Ежедневно: 8-23|55.676755|37.692558
7701-338|город Москва,Московская обл., Михневский проезд, д. 4, к. 1|Постамат|Постамат: PickPoint: 7701-338: Пятерочка|Ежедневно: 8-23|55.577479|37.66819
7701-319|город Москва,Московская обл., Учинская ул., д. 1|Постамат|Постамат: PickPoint: 7701-319: Пятерочка|Ежедневно: 8-23|55.881894|37.536337
7701-320|город Москва,Московская обл., Лухмановская ул., д. 6|Постамат|Постамат: PickPoint: 7701-320: Пятерочка|Ежедневно: 8-23|55.713226|37.899013
7701-323|город Москва,Московская обл., Привольная ул., д. 65/32|Постамат|Постамат: PickPoint: 7701-323: Пятерочка|Ежедневно: 8-23|55.681411|37.848341
7701-324|город Москва,Московская обл., Солнечногорская ул., д. 7, к. 1|Постамат|Постамат: PickPoint: 7701-324: Пятерочка|Ежедневно: 8-23|55.858645|37.516
7701-327|город Москва,Московская обл., Донелайтиса проезд, д. 23|Постамат|Постамат: PickPoint: 7701-327: Пятерочка|Ежедневно: 9-23|55.846591|37.418414
5105-008|город Мурманск,Мурманская обл., Аскольдовцев ул., д. 25, к. 5|Постамат|Постамат: Халва: 5105-008: Магнит Косметик|Ежедневно: 10-21|69.002368|33.07481
6122-023|город Таганрог,Ростовская обл., 1 Новый пер., д. 35/2|ПВЗ|ПВЗ: Ситилинк: 6122-023|Ежедневно: 9-21|47.277055|38.92534
7702-732|город Москва,Московская обл., Теплый стан ул., вл. 27, стр. 1|ПВЗ|ПВЗ: Ситилинк: 7702-732: ТЦ Тропарево|Ежедневно: 10-21 (обед: 14-15)|55.630614|37.482026
7702-733|город Москва,Московская обл., Профсоюзная ул., д. 12|ПВЗ|ПВЗ: Ситилинк: 7702-733: ТЦ Олиан|Ежедневно: 10-21 (обед: 14-15)|55.685432|37.570123
7701-689|город Москва,Московская обл., Белореченская ул., д. 14|Постамат|Постамат: PickPoint: 7701-689: ТЦ Бута Парк|Ежедневно: 10-22|55.670041|37.763513
6795-028|город Десногорск,Смоленская обл., Набережная зона отдыха, стр. 1|Постамат|Постамат: PickPoint: 6795-028: ТЦ Галактика|Ежедневно: 10-22|54.15852|33.293523
1802-072|город Ижевск,Удмуртская респ., Удмуртская ул., д. 267А|ПВЗ|ПВЗ: Ozon: 1802-072|Ежедневно: 9-21|56.879691|53.220848
7402-124|город Челябинск,Челябинская обл., Ленина пр-кт, д. 36|ПВЗ|ПВЗ: Халва: 7402-124: Совкомбанк|Пн-Пт: 9-19; Сб-Вс: 10-16|55.161178|61.418741
3602-064|город Воронеж,Воронежская обл., Ленина ул., д. 43|ПВЗ|ПВЗ: Ситилинк: 3602-064|Ежедневно: 9-20 (обед: 13:30-14)|51.686824|39.218478
6402-048|город Саратов,Саратовская обл., Строителей пр-кт, д. 22|ПВЗ|ПВЗ: Ситилинк: 6402-048|Пн: Выходной; Вт-Сб: 10-19; Вс: Выходной|51.591976|45.968563
6895-004|город Мичуринск,Тамбовская обл., Красная ул., д. 55|Постамат|Постамат: PickPoint: 6895-004: Пятерочка|Ежедневно: 8-23|52.897612|40.505771
6605-031|город Екатеринбург,Свердловская обл., Черепанова ул., д. 14А|Постамат|Постамат: PickPoint: 6605-031: Верный|Ежедневно: 9-22|56.857202|60.561061
2715-009|город Комсомольск-на-Амуре,Хабаровский край, Дикопольцева ул., д. 35|Постамат|Постамат: PickPoint: 2715-009|Круглосуточно|50.547788|136.965109
4292-049|город Ленинск-Кузнецкий,Кемеровская обл., Пушкина ул., д. 90|ПВЗ|ПВЗ: Ситилинк: 4292-049: ТЦ Коняхинский|Пн: Выходной; Вт-Сб: 10-19 (обед: 15-15:30); Вс: Выходной|54.681279|86.185187
2315-005|город Новороссийск,Краснодарский край, Энгельса ул., д. 74-84|Постамат|Постамат: PickPoint: 2315-005: ТЦ Галерея|Ежедневно: 9-21|44.708469|37.782548
2395-009|город Абинск,Краснодарский край, Интернациональная ул., д. 41 А|Постамат|Постамат: PickPoint: 2395-009: Фикс-Прайс|Ежедневно: 8-20|44.866518|38.152133
2395-010|город Крымск,Краснодарский край, Маршала Гречко ул., д. 76|Постамат|Постамат: PickPoint: 2395-010: Фикс-Прайс|Ежедневно: 9-21|44.923193|37.999078
6605-006|город Екатеринбург,Свердловская обл., Уральская ул., д. 59|Постамат|Постамат: PickPoint: 6605-006: Фикс-Прайс|Ежедневно: 9-21|56.857559|60.632239
6605-008|город Екатеринбург,Свердловская обл., Билимбаевская ул., д. 28|Постамат|Постамат: PickPoint: 6605-008: Фикс-Прайс|Ежедневно: 9-21|56.885643|60.511003
5001-541|город Десёновское,Московская обл., 3-я Нововатутинская ул., д. 8|Постамат|Постамат: PickPoint: 5001-541: Дом Быта|Ежедневно: 9-21|55.52118|37.347584
0505-018|город Махачкала,Дагестан респ., Насрудинова ул., д. 69Б|Постамат|Постамат: PickPoint: 0505-018|Ежедневно: 10-20|42.953928|47.560252
6311-002|город Тольятти,Самарская обл., Карла Маркса ул., д. 57|Постамат|Постамат: PickPoint: 6311-002: ТРЦ Космос|Ежедневно: 10-21|53.510064|49.414725
7702-745|город Москва,Московская обл., Рождественская ул., д. 16|ПВЗ|ПВЗ: PickPoint: 7702-745|Ежедневно: 9-21|55.703256|37.9199
0225-002|город Октябрьский,Башкортостан респ., Новоселов ул., д. 18|Постамат|Постамат: Халва: 0225-002: Магнит Косметик|Ежедневно: 10:30-21:30|54.476698|53.508376
6605-144|город Екатеринбург,Свердловская обл., Бардина ул., д. 34А|Постамат|Постамат: Халва: 6605-144: Верный|Ежедневно: 9-23|56.801223|60.572223
5105-014|город Мурманск,Мурманская обл., Шабалина ул., д. 13|Постамат|Постамат: Халва: 5105-014: Магнит Косметик|Ежедневно: 8:30-21|68.890782|33.101506
4305-046|город Киров,Кировская обл., Карла Либкнехта ул., д. 37|Постамат|Постамат: Халва: 4305-046: Магнит Косметик|Ежедневно: 9-21|58.610385|49.664244
5005-637|город Видное,Московская обл., Школьная ул., д. 70|Постамат|Постамат: Халва: 5005-637: Бристоль|Ежедневно: 8-23|55.553911|37.693237
5005-636|город Щелково,Московская обл., Богородский мкр., д. 19А|Постамат|Постамат: Халва: 5005-636: Красное Белое|Ежедневно: 9-22:05|55.938695|37.981962
5905-103|город Пермь,Пермский край, Холмогорская ул., д. 4В|Постамат|Постамат: Халва: 5905-103: Магнит Косметик|Ежедневно: 9:30-21:30|57.986244|56.285805
5005-635|город Жуковский,Московская обл., Гагарина ул., д. 3Б|Постамат|Постамат: Халва: 5005-635: Магнит Косметик|Ежедневно: 8-22:30|55.600155|38.109912
5005-634|город Балашиха,Московская обл., 1 Мая мкр., д. 27|Постамат|Постамат: Халва: 5005-634: Магнит Косметик|Ежедневно: 8-23|55.804547|37.842059
2195-004|город Канаш,Чувашия респ., Машиностроителей ул., д. 29А|Постамат|Постамат: Халва: 2195-004: Магнит Косметик|Ежедневно: 9-20:30|55.492324|47.484803
2195-003|город Канаш,Чувашия респ., Железнодорожная ул., д. 87А|Постамат|Постамат: Халва: 2195-003: Магнит Косметик|Ежедневно: 9-21|55.512464|47.479538
5905-102|город Пермь,Пермский край, Сибирская ул., д. 50|Постамат|Постамат: Халва: 5905-102: Магнит Косметик|Ежедневно: 9:30-21:30|58.001685|56.25917
3322-008|город Муром,Владимирская обл., Московская ул., д. 96|ПВЗ|ПВЗ: Ozon: 3322-008|Пн-Пт: 10-20; Сб-Вс: 10-19|55.574243|42.026612
5005-639|город Володарского,Московская обл., Центральная ул., д. 26|Постамат|Постамат: Халва: 5005-639: ТЦ Мир|Ежедневно: 10-20|55.501816|37.946762
5005-638|город Радужный,Московская обл., поселок Радужный, д. 42|Постамат|Постамат: Халва: 5005-638: Смак|Ежедневно: 8-21:30|55.13849|38.730378
7301-001|город Ульяновск,Ульяновская обл., 40-летия Победы ул., д. 7|Постамат|Постамат: PickPoint: 7301-001: ТЦ Велес|Ежедневно: 10-20|54.371882|48.590042
0735-001|город Нарткала,Кабардино-Балкарская респ., Жамборова ул., д. 72|Постамат|Постамат: PickPoint: 0735-001: ТД Версаль|Ежедневно: 8-20|43.534432|43.847335
2315-030|город Новороссийск,Краснодарский край, Григорьева ул., д. 1|Постамат|Постамат: PickPoint: 2315-030: Гипермаркет Лента|Круглосуточно|44.669509|37.780134
5801-003|город Пенза,Пензенская обл., Строителей пр-кт, д 45 к А|Постамат|Постамат: PickPoint: 5801-003: ТЦ Космос-Сити|Ежедневно: 9-21|53.222083|44.89451
8645-001|город Ханты-Мансийск,Ханты-Мансийский авт. округ-Югра, Свободы ул., д. 11|Постамат|Постамат: PickPoint: 8645-001: Торговый центр|Ежедневно: 9-21|60.969857|69.057422
1105-032|город Сыктывкар,Коми респ., Морозова ул., д. 105|Постамат|Постамат: Халва: 1105-032: Магнит Косметик|Ежедневно: 9:30-21|61.652251|50.796684
2605-012|город Ставрополь,Ставропольский край, Л.Толстого ул., д. 121|Постамат|Постамат: Халва: 2605-012: Магнит Косметик|Ежедневно: 9:30-21|45.022883|41.954046
5905-104|город Пермь,Пермский край, Гусарова ул., д. 20|Постамат|Постамат: Халва: 5905-104: Магнит Косметик|Ежедневно: 9:30-21:30|57.963942|56.215996
5005-641|город Электросталь,Московская обл., Тевосяна ул., д. 12|Постамат|Постамат: Халва: 5005-641: Магнит Косметик|Ежедневно: 9:30-21|55.777064|38.436638
5005-640|город Ногинск,Московская обл., 1-ый Текстильный пер., д. 9|Постамат|Постамат: Халва: 5005-640: Магнит Косметик|Ежедневно: 9-21|55.884768|38.431658
4305-048|город Киров,Кировская обл., Ленина ул., д. 89Б|Постамат|Постамат: Халва: 4305-048: Магнит Косметик|Ежедневно: 9-20:30|58.597312|49.681078
8605-039|город Сургут,Ханты-Мансийский авт. округ-Югра, Югорская ул., д. 3|Постамат|Постамат: Халва: 8605-039: Магнит Косметик|Ежедневно: 9-21|61.239376|73.461658
6905-011|город Тверь,Тверская обл., Мичурина ул., д. 23/29|Постамат|Постамат: PickPoint: 6905-011: Пятерочка|Ежедневно: 8-22|56.875792|35.899985
2715-011|город Комсомольск-на-Амуре,Хабаровский край, Мира ул., д. 13, к. 2|Постамат|Постамат: PickPoint: 2715-011|Ежедневно: 9-22|50.537169|137.023593
6605-027|город Екатеринбург,Свердловская обл., Крауля ул., д. 4|Постамат|Постамат: PickPoint: 6605-027: Верный|Ежедневно: 8-22|56.829946|60.569092
2395-012|город Горячий Ключ,Краснодарский край, Революции ул., д. 7|Постамат|Постамат: PickPoint: 2395-012: ТЦ Пятая Авеню|Ежедневно: 9-19|44.63508|39.135626
6301-049|город Самара,Самарская обл., Мечникова ул., д. 3|Постамат|Постамат: PickPoint: 6301-049: Красное и Белое|Ежедневно: 9-23|53.186911|50.134958
6395-023|город Отрадный,Самарская обл., Гайдара ул., д. 37|Постамат|Постамат: Халва: 6395-023: Совкомбанк|Пн-Пт: 9-19; Сб: 10-16; Вс: Выходной|53.379122|51.340695
9905-297|город Москва,Московская обл., Авангардная ул., д. 12|Постамат|Постамат: Халва: 9905-297: Дикси|Круглосуточно|55.846702|37.489478
3405-095|город Волгоград,Волгоградская обл., Университетский пр-кт, д. 107|Постамат|Постамат: Халва: 3405-095: ТРЦ Акварель|Ежедневно: 10-22|48.636558|44.436073
7805-567|город Санкт-Петербург,Ленинградская обл., Петергофское шоссе, д. 17, к. 1|Постамат|Постамат: Халва: 7805-567: Верный|Ежедневно: 8-22:30|59.84772|30.188233
4005-082|город Калуга,Калужская обл., Маяковского ул., д. 66|Постамат|Постамат: Халва: 4005-082: Магнит|Ежедневно: 8-22|54.527599|36.312229
9905-298|город Москва,Московская обл., Нахимовский пр-кт, д. 25А|Постамат|Постамат: Халва: 9905-298: ТЦ Родной|Круглосуточно|55.668001|37.590144
9905-299|город Москва,Московская обл., Митинская ул., д. 52|Постамат|Постамат: Халва: Ozon: Митинская|Ежедневно: 10-22|55.852137|37.354582
6425-020|город Балаково,Саратовская обл., Комарова ул., д. 22|Постамат|Постамат: Халва: 6425-020: Магазин Мир рыбака|Пн-Сб: 8-19; Вс: 8-17|52.014744|47.812445
6115-016|город Волгодонск,Ростовская обл., Строителей пр-кт, д. 2|Постамат|Постамат: Халва: 6115-016: Совкомбанк|Пн-Пт: 9-18; Сб: 9-16; Вс: Выходной|47.512607|42.19253
4505-032|город Курган,Курганская обл., Коли Мяготина ул., д. 56|Постамат|Постамат: Халва: 4505-032: Совкомбанк|Пн-Пт: 9-19; Сб-Вс: 9-16|55.436137|65.313459
2405-172|город Красноярск,Красноярский край, Малаховская ул., д. 2|Постамат|Постамат: Халва: 2405-172: Wildberries|Ежедневно: 10-21|56.020765|92.987537
2305-110|город Краснодар,Краснодарский край, Шоссе Нефтяников ул., д. 42|Постамат|Постамат: Халва: 2305-110: ТЦ Сказка|Ежедневно: 8-23|45.07144|38.983964
6605-252|город Екатеринбург,Свердловская обл., Алтайская ул., стр. 64|Постамат|Постамат: Халва: 6605-252: Верный|Ежедневно: 8-23|56.781468|60.681153
5015-175|город Дубна,Московская обл., Дачная ул., д. 2Б|Постамат|Постамат: Халва: 5015-175: ТЦ Мармелад|Ежедневно: 9-22|56.742802|37.177604
4295-002|город Ленинск-Кузнецкий,Кемеровская обл., Пушкина ул., д. 2|Постамат|Постамат: PickPoint: 4295-002: Фикс-Прайс|Ежедневно: 9-21|54.671383|86.179149
5401-019|город Новосибирск,Новосибирская обл., Дзержинского пр-кт, д. 1/1|Постамат|Постамат: PickPoint: 5401-019: ТЦ Солнечный|Ежедневно: 9-21|55.043611|82.949762
5002-983|город Лопатино,Московская обл., Сухановская ул., д. 1, стр. 1|ПВЗ|ПВЗ: Ozon: 5002-983: ТЦ Аструм|Ежедневно: 10-22|55.535615|37.640704
7701-983|город Москва,Московская обл., Новодмитровская ул., д. 5А , стр. 2|Постамат|Постамат: PickPoint: 7701-983: Торговые ряды|Ежедневно: 9-20|55.807193|37.58853
7802-223|город Санкт-Петербург,Ленинградская обл., Балканская пл., д 5 литера В|ПВЗ|ПВЗ: PickPoint: 7802-223: ТК Домстрой|Пн-Пт: 10-19; Сб-Вс: 10-16|59.831681|30.376101
7701-191|город Москва,Московская обл., Профсоюзная ул., д. 126, к. 3|Постамат|Постамат: PickPoint: 7701-191: ТЦ Коньково Пассаж|Ежедневно: 10-22|55.63037|37.516844
6905-014|город Тверь,Тверская обл., Петербургское шоссе, д. 82/2|Постамат|Постамат: PickPoint: 6905-014: Пятерочка|Ежедневно: 8-23|56.876471|35.837704
7801-399|город Санкт-Петербург,Ленинградская обл., пр-кт Космонавтов, д 25 литера А|Постамат|Постамат: PickPoint: 7801-399: Космонавтов|Ежедневно: 8-22|59.85942|30.348486
5002-588|город Наро-Фоминск,Московская обл., Маршала Жукова ул., д. 15|ПВЗ|ПВЗ: Ozon: 5002-588: ТЦ Клондайк|Ежедневно: 9-21|55.381633|36.719401
5001-760|город Десёновское,Московская обл., Футбольная ул., д. 17|Постамат|Постамат: PickPoint: 5001-760: Торговый Центр|Круглосуточно|55.513973|37.371614
0902-006|город Черкесск,Карачаево-Черкесская респ., Парковая ул., д. 90|ПВЗ|ПВЗ: PickPoint: 0902-006|Пн-Пт: 9-18; Сб: 10-16; Вс: Выходной|44.201032|42.047542
1801-017|город Ижевск,Удмуртская респ., Пушкинская ул., д. 130|Постамат|Постамат: PickPoint: 1801-017: Торговый Центр|Ежедневно: 9-21|56.836765|53.217713
5605-020|город Оренбург,Оренбургская обл., 70 лет ВЛКСМ ул., д. 16/1|Постамат|Постамат: PickPoint: 5605-020: ТК Территория|Ежедневно: 8-22|51.826733|55.142805
7805-010|город Санкт-Петербург,Ленинградская обл., Турку ул., д. 35|Постамат|Постамат: PickPoint: 7805-010: Пятерочка|Ежедневно: 9-21|59.866829|30.412437
7702-746|город Москва,Московская обл., Большая Филевская ул., д. 16|ПВЗ|ПВЗ: Ozon: 7702-746|Ежедневно: 9-21|55.749637|37.50229
5155-002|город Североморск,Мурманская обл., Вице-адмирала Падорина ул., д. 21|Постамат|Постамат: Халва: 5155-002: Магнит Косметик|Ежедневно: 8:30-22|69.071889|33.407285
5405-128|город Новосибирск,Новосибирская обл., Высоцкого ул., д. 38, к. 3|Постамат|Постамат: Халва: 5405-128: Магазин ПивоПей|Пн-Чт: 9-1; Пт-Сб: 9-2; Вс: 9-1|55.029833|83.021322
7705-738|город Москва,Московская обл., Гарибальди ул., д. 10, к. 2|Постамат|Постамат: Халва: 7705-738: Магазин Авокадо|Ежедневно: 8-23|55.673697|37.538062
5405-126|город Новосибирск,Новосибирская обл., Краузе ул., д. 11|Постамат|Постамат: Халва: 5405-126: Магазин ПивоПей|Ежедневно: 9-22|55.114251|82.948082
2605-013|город Ставрополь,Ставропольский край, 50 лет ВЛКСМ ул., д. 93|Постамат|Постамат: Халва: 2605-013: Магнит Косметик|Ежедневно: 9:30-21|45.000166|41.919362
5995-021|город Краснокамск,Пермский край, Маяковского пр-кт, д. 6|Постамат|Постамат: Халва: 5995-021: Магнит Косметик|Ежедневно: 10-21|58.083501|55.755025
5905-106|город Пермь,Пермский край, Подводников ул., д. 9|Постамат|Постамат: Халва: 5905-106: Магнит Косметик|Ежедневно: 10-21|57.977154|56.212411
6605-145|город Екатеринбург,Свердловская обл., Заводская ул., д. 30|Постамат|Постамат: Халва: 6605-145: Ломбард Голдис|Ежедневно: 9-20|56.835455|60.552641
7295-003|город Тобольск,Тюменская обл., 7-й мкр., д. 75|Постамат|Постамат: Халва: 7295-003: ТЦ Исида|Ежедневно: 9-20:30|58.233855|68.274468
5905-105|город Пермь,Пермский край, Желябова ул., д. 10А|Постамат|Постамат: Халва: 5905-105: Магнит Косметик|Ежедневно: 9:30-21|57.996401|56.14696
5001-704|город Одинцово (Одинцовский),Московская обл., Поселок Горки-10, Рублево-успенское шоссе, д. 30А|Постамат|Постамат: PickPoint: 5001-704: ТЦ Новый Универмаг|Ежедневно: 10-22|55.706366|37.020931
5001-152|город Борзые,Московская обл., Невская ул., д. 704|Постамат|Постамат: PickPoint: 5001-152: ТЦ Княжий двор|Ежедневно: 10-22|55.812358|37.04213
6101-042|город Ростов-на-Дону,Ростовская обл., Салютина пер., д. 2А|Постамат|Постамат: PickPoint: 6101-042: Wildberries|Ежедневно: 10-21|47.201737|39.653963
3405-096|город Волгоград,Волгоградская обл., Героев Сталинграда пр-кт, д. 39|Постамат|Постамат: PickPoint: 3405-096: Магазин Универсам 50|Пн-Пт: 9-18; Сб: 10-17; Вс: Выходной|48.514591|44.542123
5001-720|город Красноармейск,Московская обл., Испытателей пр-кт, д. 6А|Постамат|Постамат: PickPoint: 5001-720: Ашан|Ежедневно: 8-23|56.116651|38.148448
7701-716|город Москва,Московская обл., Кастанаевская ул., д. 54, к. 3|Постамат|Постамат: PickPoint: 7701-716: Ашан|Ежедневно: 8-22|55.735576|37.467796
5001-769|город Подольск,Московская обл., Клемента Готвальда ул., д. 6В|Постамат|Постамат: PickPoint: 5001-769: Ашан|Ежедневно: 8-22|55.423366|37.52978
5001-773|город Электросталь,Московская обл., Ногинское шоссе, д. 2|Постамат|Постамат: PickPoint: 5001-773: Ашан|Ежедневно: 8-23|55.79725|38.430269
5001-727|город Мытищи,Московская обл., Тенистый б-р, д. 8|Постамат|Постамат: PickPoint: 5001-727: Пекарня|Ежедневно: 8-22|55.957419|37.682997
5001-775|город Троицк,Московская обл., Солнечная ул., д. 13|Постамат|Постамат: PickPoint: 5001-775: Ашан|Ежедневно: 8-23|55.470112|37.290397
5001-768|город Клин,Московская обл., Чайковского ул., д. 62А|Постамат|Постамат: PickPoint: 5001-768: Ашан|Ежедневно: 8-23|56.320822|36.760795
7801-299|город Санкт-Петербург,Ленинградская обл., тер Старо-Паново, Таллинское шоссе, д 159 литера А|Постамат|Постамат: PickPoint: 7801-299: Лента|Круглосуточно|59.80739|30.162389
1302-016|город Саранск,Мордовия респ., Веселовского ул., д. 40|ПВЗ|ПВЗ: Ozon: 1302-016|Ежедневно: 8-20|54.224648|45.13808
5005-643|город Воскресенск,Московская обл., Калинина ул., д. 50|Постамат|Постамат: Халва: 5005-643: Магнит Косметик|Ежедневно: 8-23|55.274893|38.74397
5005-642|город Зеленоград,Московская обл., к. 523|Постамат|Постамат: Халва: 5005-642: Аптека|Ежедневно: 10-21|55.991924|37.253629
5001-705|город Наро-Фоминск,Московская обл., Войкова ул., д. 3|Постамат|Постамат: PickPoint: 5001-705: ТЦ Гранд Каскад|Ежедневно: 9-21|55.385522|36.744603
5292-031|город Заволжье,Нижегородская обл., Баумана ул., д. 17А|ПВЗ|ПВЗ: Ситилинк: 5292-031: ТЦ Кристалл|Ежедневно: 9-20 (обед: 14:30-15:30)|56.629735|43.413901
4215-005|город Новокузнецк,Кемеровская обл., Новаторов ул., д. 14|Постамат|Постамат: PickPoint: 4215-005: Продукты|Ежедневно: 9-20|53.79222|87.347255
4215-006|город Новокузнецк,Кемеровская обл., Тореза ул., д. 95 Б|Постамат|Постамат: PickPoint: 4215-006: Фикс-Прайс|Ежедневно: 9-20|53.819354|87.15701
2312-024|город Новороссийск,Краснодарский край, Ленина пр-кт, д. 18|ПВЗ|ПВЗ: PickPoint: 2312-024|Ежедневно: 8-20|44.702072|37.784294
7302-029|город Ульяновск,Ульяновская обл., Богдана Хмельницкого ул., д. 21|ПВЗ|ПВЗ: PickPoint: 7302-029|Ежедневно: 8-21|54.290114|48.303572
5005-646|город Зеленоград,Московская обл., к. 826|Постамат|Постамат: Халва: 5005-646: 5005-646|Ежедневно: 8-21|55.979782|37.184575
1645-029|город Нижнекамск,Татарстан респ., Химиков пр-кт, д. 86|Постамат|Постамат: Халва: 1645-029: Магнит Косметик|Ежедневно: 9-21|55.648524|51.83481
5005-645|город Зеленоград,Московская обл., к. 330|Постамат|Постамат: Халва: 5005-645: Аптека Век Живи|Ежедневно: 8-21|55.996668|37.220101
7705-740|город Москва,Московская обл., Винокурова ул., д. 10, к. 1|Постамат|Постамат: Халва: 7705-740: Магазин Авокадо|Ежедневно: 8-23|55.687532|37.588219
7705-739|город Москва,Московская обл., Ленинский пр-кт, вл. 91, стр. 1|Постамат|Постамат: Халва: 7705-739: Гастроном|Ежедневно: 8-23|55.675751|37.531185
5602-042|город Оренбург,Оренбургская обл., Салмышская ул., д. 41|ПВЗ|ПВЗ: PickPoint: 5602-042: ТЦ Новый Мир|Пн-Пт: 10-22; Сб: 9-22; Вс: 10-22|51.827212|55.16317
5002-590|город Щербинка,Московская обл., 40 лет Октября ул., д. 15/1|ПВЗ|ПВЗ: PickPoint: 5002-590|Пн-Пт: 9-21; Сб-Вс: 10-18|55.51225|37.573569
3112-018|город Старый Оскол,Белгородская обл., Олимпийский мкр., д. 62|ПВЗ|ПВЗ: Ozon: 3112-018|Ежедневно: 9-20|51.306719|37.890067
5001-154|город Видное,Московская обл., Березовая ул., д. 9|Постамат|Постамат: PickPoint: 5001-154: Супермаркет|Круглосуточно|55.541759|37.722307
7701-194|город Москва,Московская обл., Академика Анохина ул., д. 2, к. 1 Б|Постамат|Постамат: PickPoint: 7701-194: Виктория|Ежедневно: 9-22|55.670671|37.476842
5001-153|город Долгопрудный,Московская обл., Лихачевское шоссе, д. 6|Постамат|Постамат: PickPoint: 5001-153: Виктория|Ежедневно: 9-22|55.941002|37.492904
7701-197|город Москва,Московская обл., Перовская ул., д. 61А|Постамат|Постамат: PickPoint: 7701-197: ТРК Перово Молл|Ежедневно: 9-22|55.745275|37.797442
7805-013|город Санкт-Петербург,Ленинградская обл., Белы Куна ул., д. 24, к. 1, лит. А|Постамат|Постамат: PickPoint: 7805-013: Фикс-Прайс|Ежедневно: 9:30-21|59.876829|30.391848
7805-014|город Санкт-Петербург,Ленинградская обл., 2-й Муринский пр-кт, д. 10, к. 1|Постамат|Постамат: PickPoint: 7805-014: Фикс-Прайс|Ежедневно: 9-21|60.003115|30.333385
5202-073|город Нижний Новгород,Нижегородская обл., Свободы пл., д. 4|ПВЗ|ПВЗ: PickPoint: 5202-073|Ежедневно: 8-20|56.317887|44.01576
5005-650|город Борзые,Московская обл., Невская ул., д. 704|Постамат|Постамат: Халва: 5005-650: ТЦ Княжий Двор|Ежедневно: 10-22|55.812524|37.042022
1105-033|город Сыктывкар,Коми респ., Красных Партизан ул., д. 64|Постамат|Постамат: Халва: 1105-033: Магнит Косметик|Ежедневно: 9-21|61.674989|50.821217
5005-649|город Подольск,Московская обл., Плещеевская ул., д. 56В|Постамат|Постамат: Халва: 5005-649: Парикмахерская|Ежедневно: 9-19|55.453647|37.587348
5005-648|город Зеленоград,Московская обл., Юности пл., д. 2|Постамат|Постамат: Халва: 5005-648: Аптека|Ежедневно: 9-21|56.002042|37.211194
1902-024|город Абакан,Хакасия респ., Пирятинская ул., д. 36|ПВЗ|ПВЗ: PickPoint: 1902-024|Ежедневно: 10-20|53.701455|91.396807
6102-059|город Ростов-на-Дону,Ростовская обл., Большая Садовая ул., д. 21|ПВЗ|ПВЗ: Халва: 6102-059: Совкомбанк|Пн-Пт: 9-19; Сб: 10-16; Вс: Выходной|47.219155|39.701215
4702-204|город Всеволожск,Ленинградская обл., Доктора Сотникова ул., д. 15|ПВЗ|ПВЗ: PickPoint: 4702-204|Ежедневно: 10-21|59.983657|30.640941
2605-051|город Ставрополь,Ставропольский край, Крупской пер., д. 29|Постамат|Постамат: PickPoint: 2605-051: Магазин В Шоколаде|Ежедневно: 8-20|45.032647|41.97918
5405-003|город Новосибирск,Новосибирская обл., Богдана Хмельницкого ул., д. 1|Постамат|Постамат: PickPoint: 5405-003: ТЦ Автомолл|Ежедневно: 9-20|55.06654|82.934183
2625-001|город Минеральные Воды,Ставропольский край, Кнышевского ул., д. 12|Постамат|Постамат: PickPoint: 2625-001: Магазин Наш|Ежедневно: 8-20|44.217644|43.128135
7705-742|город Москва,Московская обл., Ленинский пр-кт, д. 66|Постамат|Постамат: Халва: 7705-742: Магазин Авокадо|Ежедневно: 8-23|55.691112|37.546759
7705-741|город Москва,Московская обл., Краснобогатырская ул., д. 42|Постамат|Постамат: Халва: 7705-741: Фикс-Прайс|Ежедневно: 9-21|55.808686|37.704973
1005-028|город Петрозаводск,Карелия респ., Луначарского ул., д. 33|Постамат|Постамат: Халва: 1005-028: Магнит Косметик|Ежедневно: 9:30-21:30|61.780912|34.397489
5001-709|город Долгопрудный,Московская обл., Лихачевский пр-кт, д. 64|Постамат|Постамат: PickPoint: 5001-709: ТЦ Конфитюр|Ежедневно: 9-1|55.931236|37.494493
7801-303|город Санкт-Петербург,Ленинградская обл., ул Архивная, д 11 к 1 стр 1|Постамат|Постамат: PickPoint: 7801-303: LiveBeer|Ежедневно: 11-22|59.90399|30.450499
7605-035|город Ярославль,Ярославская обл., Ушакова проезд, д. 2Б|Постамат|Постамат: Халва: 7605-035: Магнит Косметик|Ежедневно: 9-21|57.578607|39.858674
7605-040|город Ярославль,Ярославская обл., Машиностроителей пр-кт, д. 10, к. 1|Постамат|Постамат: Халва: 7605-040: Магнит Косметик|Ежедневно: 9-21|57.652518|39.944732
5305-024|город Великий Новгород,Новгородская обл., Большая Санкт-Петербургская ул., д. 108, к. 1|Постамат|Постамат: Халва: 5305-024: Магнит Косметик|Ежедневно: 9:30-21:30|58.55921|31.275502
1605-142|город Казань,Татарстан респ., Академика Глушко ул., д. 47Г|Постамат|Постамат: Халва: 1605-142: Магнит Косметик|Ежедневно: 9-21|55.788542|49.223157
5001-710|город Домодедово,Московская обл., Курыжова ул., д. 15|Постамат|Постамат: PickPoint: 5001-710: ТЦ Центральный|Ежедневно: 9-21|55.399976|37.769959
4702-129|город Выборг,Ленинградская обл., Ленинградское шоссе, д. 65|ПВЗ|ПВЗ: PickPoint: 4702-129: Торговый Центр|Ежедневно: 9-21|60.69575|28.790628
4702-130|город Выборг,Ленинградская обл., Московский пр-кт, д. 10|ПВЗ|ПВЗ: PickPoint: 4702-130|Ежедневно: 9-21|60.706551|28.747796
7702-747|город Москва,Московская обл., Академика Анохина ул., д. 60|ПВЗ|ПВЗ: PickPoint: 7702-747|Ежедневно: 10-20|55.649048|37.468793
5002-593|город Сергиев Посад,Московская обл., Куликова ул., д. 15|ПВЗ|ПВЗ: PickPoint: 5002-593|Ежедневно: 9-20|56.292947|38.12247
7805-015|город Санкт-Петербург,Ленинградская обл., Ивана Фомина ул., д. 14, лит. А, к. 1|Постамат|Постамат: PickPoint: 7805-015: Фикс-Прайс|Ежедневно: 9-21|60.049482|30.346348
7701-696|город Москва,Московская обл., Краснобогатырская ул., д. 42|Постамат|Постамат: PickPoint: 7701-696: Фикс-Прайс|Ежедневно: 9-21|55.808686|37.704973
5245-027|город Дзержинск,Нижегородская обл., Комбрига Патоличева ул., д. 37А|Постамат|Постамат: Халва: 5245-027: Магнит Косметик|Ежедневно: 9-21|56.231163|43.378432
7705-744|город Москва,Московская обл., Ташкентская ул., д. 24, к. 1|Постамат|Постамат: Халва: 7705-744: Продукты|Ежедневно: 9-22|55.70037|37.80938
7605-041|город Ярославль,Ярославская обл., Новое Творогово ул., д. 2|Постамат|Постамат: Халва: 7605-041: Магнит Косметик|Ежедневно: 9:30-21|57.607624|39.812426
6315-017|город Тольятти,Самарская обл., Ворошилова ул., д. 57|Постамат|Постамат: Халва: 6315-017: Магнит Косметик|Ежедневно: 9-21|53.523322|49.311898
6315-018|город Тольятти,Самарская обл., Автостроителей ул., д. 12А|Постамат|Постамат: Халва: 6315-018: ТЦ Гузель|Ежедневно: 10-21|53.546006|49.330759
6105-063|город Ростов-на-Дону,Ростовская обл., 2-я Краснодарская ул., д. 147Б|Постамат|Постамат: Халва: 6105-063: Магнит Косметик|Ежедневно: 9:30-21|47.203085|39.622413
5205-125|город Нижний Новгород,Нижегородская обл., Московское шоссе, д. 17В|Постамат|Постамат: Халва: 5205-125: Магнит Косметик|Ежедневно: 9-21|56.321103|43.931156
5305-025|город Великий Новгород,Новгородская обл., Псковская ул., д. 28|Постамат|Постамат: Халва: 5305-025: Магнит Косметик|Ежедневно: 9-21|58.516958|31.246617
7701-697|город Москва,Московская обл., Суздальская ул., д. 18Г|Постамат|Постамат: PickPoint: 7701-697: ТЦ Трио|Ежедневно: 9-23|55.740928|37.851566
7801-305|город Санкт-Петербург,Ленинградская обл., ул Пулковская, д 14 литера А|Постамат|Постамат: PickPoint: 7801-305: Магнит|Ежедневно: 8-22|59.834252|30.35163
7801-390|город Санкт-Петербург,Ленинградская обл., пр-кт Энтузиастов, д 33 к 1 литера А|Постамат|Постамат: PickPoint: 7801-390: Фикс-Прайс|Ежедневно: 9-22|59.948194|30.479784
4001-022|город Калуга,Калужская обл., Ленина ул., д. 58|Постамат|Постамат: PickPoint: 4001-022: Дикси|Ежедневно: 8-23|54.520571|36.268039
0201-029|город Уфа,Башкортостан респ., Юрия Гагарина ул., д. 1/3|Постамат|Постамат: PickPoint: 0201-029: ТЦ Олимп|Ежедневно: 9-23:59|54.76516|56.050562
2391-004|город Туапсе,Краснодарский край, Победы ул., д. 10|Постамат|Постамат: PickPoint: 2391-004: ТЦ Победа|Ежедневно: 9-23|44.098702|39.080518
7702-748|город Москва,Московская обл., Профсоюзная ул., д. 32, к. 1|ПВЗ|ПВЗ: PickPoint: 7702-748|Пн-Пт: 10-20; Сб: 11-19; Вс: Выходной|55.676702|37.56026
2902-054|город Архангельск,Архангельская обл., Северодвинская ул., д. 9|ПВЗ|ПВЗ: PickPoint: 2902-054|Пн-Пт: 10-19; Сб: 10-16; Вс: Выходной|64.530309|40.547913
2202-068|город Барнаул,Алтайский край, Балтийская ул., д. 25|ПВЗ|ПВЗ: Ozon: 2202-068|Ежедневно: 9-20|53.334299|83.683093
0292-050|город Белебей,Башкортостан респ., Советская ул., д. 71|ПВЗ|ПВЗ: Ozon: 0292-050|Ежедневно: 9-21|54.104771|54.128041
3202-064|город Брянск,Брянская обл., им. А.Ф. Войстроченко ул., д. 8|ПВЗ|ПВЗ: PickPoint: 3202-064|Ежедневно: 9-21|53.268438|34.339844
3202-065|город Брянск,Брянская обл., Крахмалева ул., д. 2|ПВЗ|ПВЗ: PickPoint: 3202-065|Пн-Сб: 10-20; Вс: 10-18|53.255856|34.329334
1502-031|город Владикавказ,Северная Осетия-Алания респ., Ленина ул., д. 9|ПВЗ|ПВЗ: PickPoint: 1502-031|Пн-Пт: 9-20; Сб-Вс: 9-19|43.026948|44.682782
1502-032|город Владикавказ,Северная Осетия-Алания респ., Московская ул., д. 11|ПВЗ|ПВЗ: Ozon: 1502-032|Пн-Пт: 9-20; Сб-Вс: 10-19|43.057851|44.64979
3602-125|город Воронеж,Воронежская обл., Героев Сибиряков ул., д. 35|ПВЗ|ПВЗ: Ozon: 3602-125|Ежедневно: 9-21|51.6487|39.137899
3602-126|город Воронеж,Воронежская обл., Московский пр-кт, д. 142У|ПВЗ|ПВЗ: Ozon: 3602-126|Ежедневно: 9-21|51.730711|39.180096
3602-127|город Воронеж,Воронежская обл., Здоровья пер., д. 90А|ПВЗ|ПВЗ: Ozon: 3602-127|Ежедневно: 9-21|51.700374|39.205219
3602-128|город Воронеж,Воронежская обл., Антонова-Овсеенко ул., д. 31|ПВЗ|ПВЗ: Ozon: 3602-128|Ежедневно: 9-21|51.715005|39.144629
6602-202|город Екатеринбург,Свердловская обл., Вильгельма де Геннина ул., д. 43|ПВЗ|ПВЗ: Зоомагазин Зооцентр: 6602-202|Ежедневно: 10-21|56.789276|60.518193
6602-188|город Екатеринбург,Свердловская обл., Дорожная ул., д. 4А|ПВЗ|ПВЗ: PickPoint: 6602-188|Ежедневно: 9-21|56.773597|60.58644
6602-189|город Екатеринбург,Свердловская обл., Яскина ул., д. 14|ПВЗ|ПВЗ: Ozon: 6602-189|Ежедневно: 9-21|56.796887|60.760262
5892-028|город Заречный,Пензенская обл., Ленина ул., д. 20А|ПВЗ|ПВЗ: PickPoint: 5892-028: ТЦ Дубрава|Ежедневно: 10-20|53.192852|45.165801
3802-080|город Иркутск,Иркутская обл., Верхняя Набережная ул., д. 145/10|ПВЗ|ПВЗ: Ozon: 3802-080|Ежедневно: 10-21|52.25746|104.308837
3902-037|город Калининград,Калининградская обл., Беломорская ул., д. 2|ПВЗ|ПВЗ: Ozon: 3902-037|Ежедневно: 10-20|54.735267|20.511655
4202-059|город Кемерово,Кемеровская обл., Базовая ул., д. 6А/1|ПВЗ|ПВЗ: PickPoint: 4202-059|Пн-Пт: 10-20; Сб-Вс: 10-18|55.321365|86.072179
4202-060|город Кемерово,Кемеровская обл., Рукавишникова ул., д. 12|ПВЗ|ПВЗ: PickPoint: 4202-060|Пн-Пт: 9-18; Сб: 10-15; Вс: Выходной|55.349378|86.066716
4302-076|город Киров,Кировская обл., Чистопрудненская ул., д. 20|ПВЗ|ПВЗ: PickPoint: 4302-076|Ежедневно: 9-21|58.561207|49.638444
3312-009|город Ковров,Владимирская обл., Строителей ул., д. 27/2|ПВЗ|ПВЗ: PickPoint: 3312-009: Магазин Дом и Сад|Пн-Пт: 10-19; Сб: 10-17; Вс: Выходной|56.335274|41.306524
2302-193|город Краснодар,Краснодарский край, Циолковского ул., д. 9|ПВЗ|ПВЗ: PickPoint: 2302-193|Ежедневно: 9-21|45.080831|38.976633
2402-117|город Красноярск,Красноярский край, Норильская ул., д. 42|ПВЗ|ПВЗ: Ozon: 2402-117|Ежедневно: 10-21|56.057731|92.704352
4502-023|город Курган,Курганская обл., Карла Маркса ул., д. 60/19|ПВЗ|ПВЗ: PickPoint: 4502-023|Ежедневно: 9-21|55.438833|65.347038
7412-036|город Магнитогорск,Челябинская обл., Октябрьская ул., д. 2|ПВЗ|ПВЗ: PickPoint: 7412-036|Ежедневно: 9-21|53.421284|59.000468
0502-040|город Махачкала,Дагестан респ., Насрутдинова пр-кт, д. 30А, к. 6|ПВЗ|ПВЗ: PickPoint: 0502-040|Пн-Сб: 9-18; Вс: Выходной|42.954544|47.555728
1642-012|город Нижнекамск,Татарстан респ., Строителей пр-кт, д. 2Ж|ПВЗ|ПВЗ: Ozon: 1642-012: ТЦ Рыночные ворота|Пн-Пт: 8-20; Сб-Вс: 9-20|55.624332|51.818844
5202-133|город Нижний Новгород,Нижегородская обл., Героя Рябцева ул., д. 12|ПВЗ|ПВЗ: Ozon: 5202-133|Ежедневно: 8-20|56.317079|43.868601
5202-136|город Нижний Новгород,Нижегородская обл., Гагарина пр-кт, д. 180|ПВЗ|ПВЗ: Ozon: 5202-136|Ежедневно: 9-21|56.241319|43.964556
5202-137|город Нижний Новгород,Нижегородская обл., Красноуральская ул., д. 1А|ПВЗ|ПВЗ: PickPoint: 5202-137|Ежедневно: 9-21|56.239798|43.825084
5502-125|город Омск,Омская обл., Гашека ул., д. 3/3|ПВЗ|ПВЗ: Ozon: 5502-125: ТК Тара|Ежедневно: 9-21|54.908135|73.451282
5702-055|город Орел,Орловская обл., 60-летия ул., д. 17|ПВЗ|ПВЗ: Ozon: 5702-055|Ежедневно: 8:30-20:30|52.980246|36.070428
5602-082|город Оренбург,Оренбургская обл., Максима Горького ул., д. 41А|ПВЗ|ПВЗ: Ozon: 5602-082|Ежедневно: 9-21|51.757414|55.103539
5802-070|город Пенза,Пензенская обл., Фабричная ул., д. 3|ПВЗ|ПВЗ: Ozon: 5802-070|Ежедневно: 9-21|53.193067|45.035732
5802-071|город Пенза,Пензенская обл., 65-летия Победы ул., д. 3Б|ПВЗ|ПВЗ: Ozon: 5802-071|Ежедневно: 9-21|53.231768|44.870595
5802-073|город Пенза,Пензенская обл., Тепличная ул., д. 37|ПВЗ|ПВЗ: PickPoint: 5802-073|Ежедневно: 9-21|53.156614|44.957904
5802-074|город Пенза,Пензенская обл., Победы пр-кт, д. 144|ПВЗ|ПВЗ: PickPoint: 5802-074: ТЦ Салют|Ежедневно: 9-21|53.230433|44.920597
5902-144|город Пермь,Пермский край, Машинистов ул., д. 20/2|ПВЗ|ПВЗ: Ozon: 5902-144|Ежедневно: 9-21|58.039156|56.11092
5902-145|город Пермь,Пермский край, Уральская ул., д. 85|ПВЗ|ПВЗ: Ozon: 5902-145|Ежедневно: 10-21|58.026752|56.294986
5902-146|город Пермь,Пермский край, Малышева ул., д. 3|ПВЗ|ПВЗ: PickPoint: 5902-146|Ежедневно: 11-20:45|58.007112|56.257408
5902-147|город Пермь,Пермский край, Крисанова ул., д. 5|ПВЗ|ПВЗ: Ozon: 5902-147|Ежедневно: 9-21|58.010846|56.209635
1002-032|город Петрозаводск,Карелия респ., Белинского ул., д. 15В|ПВЗ|ПВЗ: Ozon: 1002-032|Ежедневно: 10-20|61.760703|34.40102
4222-010|город Прокопьевск,Кемеровская обл., Строителей пр-кт, д. 17|ПВЗ|ПВЗ: PickPoint: 4222-010|Пн-Пт: 9-20; Сб-Вс: 10-20|53.866003|86.625064
2612-029|город Пятигорск,Ставропольский край, Ермолова ул., д. 40, к. 1|ПВЗ|ПВЗ: PickPoint: 2612-029|Ежедневно: 9-19|44.048692|43.004527
6102-187|город Ростов-на-Дону,Ростовская обл., Зоологическая ул., д. 2А|ПВЗ|ПВЗ: PickPoint: 6102-187|Ежедневно: 9-21|47.246667|39.666209
6102-188|город Ростов-на-Дону,Ростовская обл., Максима Горького ул., д. 70|ПВЗ|ПВЗ: PickPoint: 6102-188|Ежедневно: 9-21|47.224246|39.703603
6202-062|город Рязань,Рязанская обл., Кирпичного Завода ул., д. 16А|ПВЗ|ПВЗ: Ozon: 6202-062|Ежедневно: 9-20|54.607565|39.66707
6302-160|город Самара,Самарская обл., Воронежская ул., д. 139А|ПВЗ|ПВЗ: Ozon: 6302-160|Ежедневно: 9-21|53.244214|50.218582
6302-162|город Самара,Самарская обл., Владимирская ул., д. 33|ПВЗ|ПВЗ: Ozon: 6302-162|Ежедневно: 9-21|53.192442|50.139788
6302-163|город Самара,Самарская обл., Аминева ул., д. 33|ПВЗ|ПВЗ: Ozon: 6302-163|Ежедневно: 9-21|53.251738|50.208519
1892-013|город Сарапул,Удмуртская респ., Советская ул., д. 1|ПВЗ|ПВЗ: Ozon: 1892-013|Ежедневно: 9-21|56.477293|53.816811
6402-090|город Саратов,Саратовская обл., Большая Садовая ул., д. 151|ПВЗ|ПВЗ: PickPoint: 6402-090|Ежедневно: 9-21|51.537346|45.986921
6402-091|город Саратов,Саратовская обл., Ипподромная ул., д. 8|ПВЗ|ПВЗ: Wildberries: 6402-091|Ежедневно: 9-21|51.583918|45.977941
6702-037|город Смоленск,Смоленская обл., Мало-Краснофлотская ул., д. 50|ПВЗ|ПВЗ: Ozon: 6702-037|Ежедневно: 9-20|54.78927|32.010675
6702-038|город Смоленск,Смоленская обл., Пржевальского ул., д. 6/25|ПВЗ|ПВЗ: PickPoint: 6702-038|Ежедневно: 10-21|54.784198|32.042601
6702-039|город Смоленск,Смоленская обл., Строителей пр-кт, д. 1А|ПВЗ|ПВЗ: Ozon: 6702-039|Пн-Пт: 10-20; Сб-Вс: Выходной|54.768188|32.097811
6702-040|город Смоленск,Смоленская обл., Кловская ул., д. 42|ПВЗ|ПВЗ: PickPoint: 6702-040|Ежедневно: 9-21|54.77347|32.00569
2322-057|город Сочи,Краснодарский край, Конституции СССР ул., д. 32|ПВЗ|ПВЗ: Ozon: 2322-057|Ежедневно: 9-20|43.595932|39.724654
8602-039|город Сургут,Ханты-Мансийский авт. округ-Югра, Ленина пр-кт, д. 52/1|ПВЗ|ПВЗ: Ozon: 8602-039|Ежедневно: 9-21|61.257249|73.383465
6902-047|город Тверь,Тверская обл., Смоленский пер., д. 8|ПВЗ|ПВЗ: Ozon: 6902-047|Пн-Пт: 9-20; Сб-Вс: 10-19|56.852667|35.926404
2392-175|город Тимашевск,Краснодарский край, Индустриальный мкр., д. 33/6|ПВЗ|ПВЗ: Ozon: 2392-175|Ежедневно: 8-20|45.604506|38.99578
6312-097|город Тольятти,Самарская обл., Фрунзе ул., д. 35|ПВЗ|ПВЗ: PickPoint: 6312-097|Пн-Пт: 10-19; Сб: 10-15; Вс: Выходной|53.515044|49.270186
7002-045|город Томск,Томская обл., Большая Подгорная ул., д. 164|ПВЗ|ПВЗ: PickPoint: 7002-045|Ежедневно: 9-21|56.515344|84.957737
7102-063|город Тула,Тульская обл., Красноармейский пр-кт, д. 30|ПВЗ|ПВЗ: PickPoint: 7102-063|Ежедневно: 9-21|54.197863|37.59454
7202-110|город Тюмень,Тюменская обл., Пермякова ул., д. 2А|ПВЗ|ПВЗ: PickPoint: 7202-110|Ежедневно: 10-21|57.133637|65.59951
0202-109|город Уфа,Башкортостан респ., Ахметова ул., д. 225|ПВЗ|ПВЗ: Ozon: 0202-109|Пн-Сб: 10-21; Вс: 10-20|54.780206|55.887477
8642-008|город Ханты-Мансийск,Ханты-Мансийский авт. округ-Югра, Объездная ул., д. 53|ПВЗ|ПВЗ: Ozon: 8642-008|Пн-Чт: 9-20; Пт-Сб: 9-19; Вс: 10-12|60.971851|69.017348
7402-125|город Челябинск,Челябинская обл., Свободы ул., д. 104|ПВЗ|ПВЗ: PickPoint: 7402-125|Пн-Сб: 9-20; Вс: 10-18|55.146365|61.415915
4512-007|город Шадринск,Курганская обл., Розы Люксембург ул., д. 15|ПВЗ|ПВЗ: Ozon: 4512-007|Пн-Вт: 10-21; Ср: 10-16; Чт-Вс: 10-21|56.085325|63.634764
5405-002|город Новосибирск,Новосибирская обл., Учительская ул., д. 29|Постамат|Постамат: PickPoint: 5405-002: Фикс-Прайс|Ежедневно: 9-20|55.079401|82.967474
5001-262|город Лосино-Петровский,Московская обл., Первомайская ул., д. 17|Постамат|Постамат: PickPoint: 5001-262: Пятерочка|Ежедневно: 8-23|55.873599|38.204787
7201-035|город Тюмень,Тюменская обл., Василия Подшибякина ул., д. 12|Постамат|Постамат: PickPoint: 7201-035: Магнит|Ежедневно: 8-22|57.116451|65.497129
5605-021|город Оренбург,Оренбургская обл., Салмышская ул., д. 43/5|Постамат|Постамат: PickPoint: 5605-021: Пятерочка|Ежедневно: 8-22|51.821667|55.168847
6195-007|город Донецк,Ростовская обл., Ленина ул., д. 18А|Постамат|Постамат: PickPoint: 6195-007: ТЦ Велес|Ежедневно: 8-19|48.334042|39.946043
7615-007|город Рыбинск,Ярославская обл., Юбилейная ул., д. 27А|Постамат|Постамат: Халва: 7615-007: Магнит Косметик|Ежедневно: 9-21|58.022253|38.856095
7615-006|город Рыбинск,Ярославская обл., Толбухина ул., д. 13А|Постамат|Постамат: Халва: 7615-006: Магнит Косметик|Ежедневно: 9:30-21|58.098934|38.739514
5905-117|город Пермь,Пермский край, Пулковская ул., д. 5|Постамат|Постамат: Халва: 5905-117: Магнит Косметик|Ежедневно: 9-21|58.107142|56.300994
4805-041|город Липецк,Липецкая обл., Строителей проезд, д. 27А|Постамат|Постамат: Халва: 4805-041: Магнит Косметик|Ежедневно: 9-21|52.597264|39.549435
4805-040|город Липецк,Липецкая обл., Победы пр-кт, д. 108А|Постамат|Постамат: Халва: 4805-040: ТЦ У автовокзала|Ежедневно: 9-21|52.58689|39.548229
4805-039|город Липецк,Липецкая обл., им. 60-летия СССР пр-кт, д. 2/1|Постамат|Постамат: Халва: 4805-039: Магнит Косметик|Ежедневно: 9-21|52.584818|39.543695
3425-021|город Волжский,Волгоградская обл., Дружбы ул., д. 72А|Постамат|Постамат: Халва: 3425-021: Магнит Косметик|Ежедневно: 9-21|48.759877|44.80511
4705-072|город Петергоф,Ленинградская обл., Разведчика б-р, д. 4, к. 1|Постамат|Постамат: Халва: Магнит Косметик: Разведчика|Ежедневно: 8-22|59.877253|29.899014
7801-306|город Санкт-Петербург,Ленинградская обл., пр-кт Большевиков, д 6 к 1 литера А|Постамат|Постамат: PickPoint: 7801-306: Универсам|Ежедневно: 9-23|59.916466|30.474919
7701-698|город Москва,Московская обл., Новоалексеевская ул., д. 12, стр. 1|Постамат|Постамат: PickPoint: 7701-698: ТЦ Колорит|Ежедневно: 8-23|55.808371|37.644944
5001-711|город Дубна,Московская обл., Боголюбова пр-кт, д. 18|Постамат|Постамат: PickPoint: 5001-711: ТЦ Бриз|Ежедневно: 8-23|56.738073|37.165019
6605-010|город Екатеринбург,Свердловская обл., Восточная ул., д. 7Г|Постамат|Постамат: PickPoint: 6605-010: ТД Восточный|Ежедневно: 9-21|56.833659|60.635743
6805-008|город Тамбов,Тамбовская обл., Энтузиастов б-р, д. 1Н|Постамат|Постамат: PickPoint: 6805-008: Пятерочка|Ежедневно: 8-23|52.757998|41.434138
2705-028|город Хабаровск,Хабаровский край, Тихоокеанская ул., д. 204, к. 1|Постамат|Постамат: PickPoint: 2705-028|Ежедневно: 8-19|48.553871|135.049611
2715-010|город Комсомольск-на-Амуре,Хабаровский край, Пионерская ул., д. 67|Постамат|Постамат: PickPoint: 2715-010|Ежедневно: 9-21|50.556631|137.020902
5002-594|город Подольск,Московская обл., Садовая ул., д. 7, к. 3|ПВЗ|ПВЗ: Ozon: 5002-594|Пн-Пт: 10-20; Сб: 10-19; Вс: 10-18|55.451203|37.542089
5001-858|город Дубна,Московская обл., Дачная ул., д. 1, стр. 2|Постамат|Постамат: PickPoint: 5001-858: Wildberries|Ежедневно: 10-21|56.742901|37.178844
6401-031|город Саратов,Саратовская обл., ул им Блинова Ф.А., д 21Б|Постамат|Постамат: PickPoint: 6401-031: Магазин Малина|Ежедневно: 8-21|51.600721|45.998208
3201-014|город Брянск,Брянская обл., Горбатова ул., д. 24|Постамат|Постамат: PickPoint: 3201-014: Зоомагазин|Ежедневно: 9-21|53.268154|34.347049
7701-707|город Москва,Московская обл., Муравская ул., д. 42, к. 1|Постамат|Постамат: PickPoint: 7701-707: Магазин РОСТАБАК|Ежедневно: 10-22|55.860912|37.372343
6005-004|город Псков,Псковская обл., Яна Фабрициуса ул., д. 5Б|Постамат|Постамат: PickPoint: 6005-004: Пятерочка|Ежедневно: 8-23|57.806375|28.345
5605-017|город Оренбург,Оренбургская обл., Поляничко ул., д. 2|Постамат|Постамат: PickPoint: 5605-017: Пятерочка|Ежедневно: 8-22|51.825806|55.169239
7202-062|город Тюмень,Тюменская обл., Малая Боровская ул., д. 28, к. 1|ПВЗ|ПВЗ: Ozon: 7202-062|Пн-Пт: 10-21; Сб-Вс: 10-19|57.093439|65.639958
1625-101|город Набережные Челны,Татарстан респ., Дружбы Народов пр-кт, д. 46А|Постамат|Постамат: Халва: 1625-101: Магнит Косметик|Ежедневно: 9-21|55.733802|52.371521
4805-042|город Липецк,Липецкая обл., Юбилейная ул., д. 5|Постамат|Постамат: Халва: 4805-042: Магнит Косметик|Ежедневно: 9-21|52.539158|39.570032
7205-108|город Тюмень,Тюменская обл., Тимофея Чаркова ул., д. 79, к. 2|Постамат|Постамат: PickPoint: 7205-108: Магазин Bomba БИР|Ежедневно: 10-21|57.180603|65.656019
5005-653|город Зеленоград,Московская обл., к. 612|Постамат|Постамат: Халва: 5005-653: Аптека Медиал Экономия|Ежедневно: 8-21|55.988077|37.232603
5005-652|город Зеленоград,Московская обл., к. 514, стр. 3|Постамат|Постамат: Халва: 5005-652: Аптека Здесь аптека|Ежедневно: 9-21|55.997659|37.235589
5401-048|город Новосибирск,Новосибирская обл., Широкая ул., д. 113/2|Постамат|Постамат: PickPoint: 5401-048: ТЦ Широта|Ежедневно: 8-22|54.99321|82.849624
6792-019|город Ярцево,Смоленская обл., Советская ул., д. 24|ПВЗ|ПВЗ: PickPoint: 6792-019: Магазин Пионер|Пн-Пт: 9-19 (обед: 13:30-14); Сб-Вс: 9-17 (обед: 13:30-14)|55.068337|32.696342
5692-024|город Сорочинск,Оренбургская обл., Карла Маркса ул., д. 13|ПВЗ|ПВЗ: Ozon: 5692-024|Ежедневно: 10-20|52.432194|53.158418
5001-607|город Лосино-Петровский,Московская обл., ул Кирова, стр 6А|Постамат|Постамат: PickPoint: 5001-607: Торговый Центр|Ежедневно: 8-20|55.865465|38.19748
2401-025|город Красноярск,Красноярский край, 9 Мая ул., д. 49|Постамат|Постамат: PickPoint: 2401-025: Магазин Studio Bounty|Ежедневно: 11-20|56.0611|92.921876
4502-008|город Курган,Курганская обл., Коли Мяготина ул., д. 56А|ПВЗ|ПВЗ: Ситилинк: 4502-008: ТЦ Дом бытовых услуг|Ежедневно: 10-19 (обед: 14-15)|55.435969|65.315185
7801-150|город Санкт-Петербург,Ленинградская обл., пр-кт Энергетиков, д 16 литера А|Постамат|Постамат: PickPoint: 7801-150: Лента|Круглосуточно|59.946829|30.434545
5001-010|город Зеленоград,Московская обл., Панфиловский пр-кт, д. 6А|Постамат|Постамат: PickPoint: 5001-010: ТЦ Панфиловский|Ежедневно: 10-22|56.008889|37.199817
5245-028|город Дзержинск,Нижегородская обл., Октябрьская ул., д. 5, к. 7|Постамат|Постамат: Халва: 5245-028: Магнит Косметик|Ежедневно: 9:30-21:30|56.231712|43.458583
4705-074|город Шушары,Ленинградская обл., Старорусский пр-кт, д. 6|Постамат|Постамат: Халва: Магнит Косметик: Старорусский|Ежедневно: 10-22|59.810252|30.358377
2395-038|город Динская,Краснодарский край, Красная ул., д. 64|Постамат|Постамат: Халва: 2395-038: Магнит Косметик|Ежедневно: 8-20|45.215564|39.227844
2395-039|город Тимашевск,Краснодарский край, Братская ул.. д. 161|Постамат|Постамат: Халва: 2395-039: Магнит Косметик|Ежедневно: 8:30-19:30|45.612181|38.930847
3425-023|город Волжский,Волгоградская обл., Энгельса ул., д. 39|Постамат|Постамат: Халва: 3425-023: Магнит Косметик|Ежедневно: 9-21|48.789901|44.767093
5005-654|город Талдом,Московская обл., Пушкина ул., д. 36|Постамат|Постамат: Халва: 5005-654: Магнит Косметик|Ежедневно:9-21|56.739046|37.52713
1005-031|город Петрозаводск,Карелия респ., Мичуринская ул., д. 62А|Постамат|Постамат: Халва: 1005-031: Магнит Косметик|Ежедневно: 10-21:30|61.780487|34.32778
6125-008|город Таганрог,Ростовская обл., Москатова ул., д. 15|Постамат|Постамат: Халва: 6125-008: Магнит Косметик|Ежедневно: 8:30-20:30|47.262252|38.919797
7415-046|город Магнитогорск,Челябинская обл., Ворошилова ул., д. 31|Постамат|Постамат: Халва: 7415-046: Магнит|Ежедневно: 9-22|53.365938|58.982448
2915-014|город Северодвинск,Архангельская обл., Победы пр-кт, д. 37|Постамат|Постамат: Халва: 2915-014: Магнит Косметик|Ежедневно: 10-21|64.537092|39.809785
1125-011|город Ухта,Коми респ., Октябрьская ул., д. 4|Постамат|Постамат: Халва: 1125-011: Магнит Косметик|Ежедневно: 9-21|63.555464|53.697171
7805-390|город Санкт-Петербург,Ленинградская обл., Смоленская ул., д. 18|Постамат|Постамат: Халва: 7805-390: Магнит Косметик|Ежедневно: 10-22|59.904536|30.32478
7805-401|город Санкт-Петербург,Ленинградская обл., 2-й Рабфаковский пер., д. 16|Постамат|Постамат: Халва: 7805-401: Магнит Косметик|Ежедневно: 10-22|59.855801|30.476163
4705-073|город Пушкин,Ленинградская обл., Генерала Хазова ул., д. 12А|Постамат|Постамат: Халва: 4705-073: Магнит Косметик|Ежедневно: 10-22|59.73848|30.404794
5001-011|город Жуковский,Московская обл., Баженова ул., д. 11|Постамат|Постамат: PickPoint: 5001-011: SPAR|Ежедневно: 10-23|55.605495|38.074004
5101-001|город Мурманск,Мурманская обл., Самойловой ул., д. 14А|Постамат|Постамат: PickPoint: 5101-001: ТЦ Пионер|Ежедневно: 9-21|68.967433|33.069303
5005-141|город Орехово-Зуево,Московская обл., Ленина ул., д. 45|Постамат|Постамат: PickPoint: 5005-141: Пятерочка|Ежедневно: 8-23|55.79768|38.974589
5705-009|город Орел,Орловская обл., Пушкина ул., д. 20|Постамат|Постамат: PickPoint: 5705-009: Пятерочка|Ежедневно: 8-22|52.967387|36.080217
5705-008|город Орел,Орловская обл., Маринченко ул., д. 7А|Постамат|Постамат: PickPoint: 5705-008: Пятерочка|Ежедневно: 8-23|53.008064|36.142069
7701-051|город Москва,Московская обл., Вавилова ул., д. 66|Постамат|Постамат: PickPoint: 7701-051: ТЦ Триумфальный|Ежедневно: 10-21|55.683164|37.548971
5001-012|город Долгопрудный,Московская обл., Пацаева пр-кт, д. 12|Постамат|Постамат: PickPoint: 5001-012: ТЦ Долгопрудный|Ежедневно: 10-21|55.94867|37.499295
7801-025|город Санкт-Петербург,Ленинградская обл., ул Будапештская, д 11 литера А|Постамат|Постамат: PickPoint: 7801-025: ТЦ Торговый город|Ежедневно: 11-20|59.86892|30.368635
6301-005|город Самара,Самарская обл., Стара Загора ул., д. 151А|Постамат|Постамат: PickPoint: 6301-005: ТЦ Добрыня продукт|Ежедневно: 9-21|53.2388|50.227914
5001-008|город Подольск,Московская обл., Вокзальная пл., д. 8|Постамат|Постамат: PickPoint: 5001-008: ТЦ Вокзальный|Ежедневно: 9-22|55.432705|37.565159
5001-351|город Видное,Московская обл., Старо-нагорная ул., д. 20|Постамат|Постамат: PickPoint: 5001-351: Лента|Ежедневно: 8-23|55.566396|37.69038
5001-352|город Домодедово,Московская обл., мкр Центральный, ул Кирова, соор 28|Постамат|Постамат: PickPoint: 5001-352: Лента|Ежедневно: 8-23|55.431606|37.751403
7702-056|город Москва,Московская обл., Большая Семеновская ул., д. 16|ПВЗ|ПВЗ: PickPoint: 7702-056: ТЦ Серебрянный дом|Ежедневно: 10-22|55.781919|37.704017
6602-089|город Екатеринбург,Свердловская обл., Техническая ул., д. 26|ПВЗ|ПВЗ: Ozon: 6602-089|Ежедневно: 9-21|56.865103|60.536574
6602-091|город Екатеринбург,Свердловская обл., Тбилисский б-р, д. 5|ПВЗ|ПВЗ: Ozon: 6602-091|Ежедневно: 9-21|56.792794|60.629742
6662-008|город Первоуральск,Свердловская обл., Ленина ул., д. 17|ПВЗ|ПВЗ: Ozon: 6662-008|Ежедневно: 9-21|56.911672|59.948585
6602-095|город Екатеринбург,Свердловская обл., Опалихинская ул., д. 42|ПВЗ|ПВЗ: Ozon: 6602-095|Ежедневно: 9-21|56.854572|60.557485
6602-096|город Екатеринбург,Свердловская обл., Восстания ул., д. 50|ПВЗ|ПВЗ: PickPoint: 6602-096: ТЦ Кировский Люкс|Ежедневно: 9-20 (обед: 13:30-14)|56.904251|60.600816
6602-097|город Екатеринбург,Свердловская обл., Бебеля ул., д. 156|ПВЗ|ПВЗ: Ozon: 6602-097|Ежедневно: 9-21|56.868684|60.553601
6602-100|город Екатеринбург,Свердловская обл., Академика Бардина ул., д. 12|ПВЗ|ПВЗ: Ozon: 6602-100|Ежедневно: 9-21|56.807038|60.555505
6602-101|город Екатеринбург,Свердловская обл., Сулимова ул., д. 23|ПВЗ|ПВЗ: Ozon: 6602-101|Ежедневно: 9-21|56.860959|60.646181
7802-347|город Санкт-Петербург,Ленинградская обл., Предпортовый 5-й проезд, д. 1|ПВЗ|ПВЗ: Ozon: 7802-347|Ежедневно: 9-21|59.841078|30.309243
4702-132|город Кировск,Ленинградская обл., Набережная ул., д. 1, к. 3|ПВЗ|ПВЗ: Ozon: 4702-132|Ежедневно: 9-21|59.888266|30.990934
4702-133|город Колпино,Ленинградская обл., Ленина пр-кт, д. 54|ПВЗ|ПВЗ: Ozon: 4702-133|Ежедневно: 9-21|59.750217|30.572751
7701-406|город Москва,Московская обл., Петровско-Разумовский проезд., д. 2|Постамат|Постамат: PickPoint: 7701-406: Магнит|Ежедневно: 8:30-23|55.792041|37.570152
7701-407|город Москва,Московская обл., Полярная ул., д. 6, к. 1|Постамат|Постамат: PickPoint: 7701-407: Магнит|Ежедневно: 8:30-23|55.87352|37.638148
4805-014|город Липецк,Липецкая обл., Жуковского ул., д. 22Б|Постамат|Постамат: PickPoint: 4805-014: Пятерочка|Ежедневно: 8-22|52.535326|39.567676
5705-006|город Орел,Орловская обл., Саханская ул., д. 2|Постамат|Постамат: PickPoint: 5705-006: Пятерочка|Ежедневно: 8-22|52.925509|36.019877
3405-097|город Волгоград,Волгоградская обл., Академика Павлова ул., д. 2|Постамат|Постамат: PickPoint: 3405-097: ТЦ Граффити|Ежедневно: 9-22|48.814048|44.618251
5505-048|город Омск,Омская обл., 4-я Любинская ул., д. 38|Постамат|Постамат: PickPoint: 5505-048: Пятерочка|Ежедневно: 8-22|54.997457|73.229926
7701-699|город Москва,Московская обл., Теплый стан ул., д. 1А|Постамат|Постамат: PickPoint: 7701-699: Торговый Центр|Ежедневно: 7-23|55.619508|37.500899
7701-700|город Москва,Московская обл., Славянский б-р, д. 9, к. 1|Постамат|Постамат: PickPoint: 7701-700: ВкусВилл|Ежедневно: 9-23|55.726432|37.4687
2345-002|город Геленджик,Краснодарский край, Халтурина ул., д. 30, лит. 2|Постамат|Постамат: PickPoint: 2345-002: ТОЦ Панорама|Ежедневно: 9-23|44.57347|38.076782
3312-005|город Ковров,Владимирская обл., Ватутина ул., д. 59|ПВЗ|ПВЗ: Ситилинк: 3312-005: ТЦ Треугольник|Ежедневно: 10:15-19:45 (обед: 14:30-15)|56.337481|41.317149
5292-019|город Выкса,Нижегородская обл., Ленина ул., д. 179А|ПВЗ|ПВЗ: Ситилинк: 5292-019|Ежедневно: 9:15-20:45 (обед: 14:30-15)|55.319756|42.152708
3312-004|город Ковров,Владимирская обл., Ленина пр-кт, д. 7|ПВЗ|ПВЗ: Ситилинк: 3312-004|Ежедневно: 10:45-19:45 (обед: 14:30-15)|56.366904|41.310367
5001-355|город Электросталь,Московская обл., Тевосяна ул., 26А|Постамат|Постамат: PickPoint: 5001-355: Кинотеатр Современник|Ежедневно: 9-21|55.778015|38.443099
7312-004|город Димитровград,Ульяновская обл., Ленина пр-кт, д. 23А|ПВЗ|ПВЗ: Ситилинк: 7312-004: ТЦ Арбат|Ежедневно: 9-20|54.232454|49.55488
4702-080|город Выборг,Ленинградская обл., Мира ул., д. 8А|ПВЗ|ПВЗ: Ситилинк: 4702-080: ТЦ Атриум|Ежедневно: 10-19:50|60.709589|28.753509
7802-225|город Санкт-Петербург,Ленинградская обл., Ленсовета ул., д. 87, лит. А, пом. 12Н|ПВЗ|ПВЗ: Ситилинк: 7802-225|Ежедневно: 10-21|59.836206|30.342153
7701-071|город Москва,Московская обл., Южнобутовская ул., д. 58|Постамат|Постамат: PickPoint: 7701-071: ТЦ Ампурия|Ежедневно: 10-21|55.536834|37.52924
5001-157|город Домодедово,Московская обл., Гагарина ул., д. 37|Постамат|Постамат: PickPoint: 5001-157: ТЦ Форус|Ежедневно: 10-21|55.451201|37.745771
2695-002|город Кисловодск,Ставропольский край, Калинина ул., д. 65|Постамат|Постамат: PickPoint: 2695-002: ТД Наш|Ежедневно: 9-21|43.927843|42.732508
2695-003|город Кисловодск,Ставропольский край, Красивая ул., д. 23|Постамат|Постамат: PickPoint: 2695-003: Магазин Наш|Ежедневно: 9-20|43.928479|42.713356
2695-004|город Кисловодск,Ставропольский край, Седлогорская ул., д. 91|Постамат|Постамат: PickPoint: 2695-004: Магазин Наш|Ежедневно: 9-20|43.918168|42.741482
7701-073|город Москва,Московская обл., Энтузиастов шоссе, д. 31, стр. 39|Постамат|Постамат: PickPoint: 7701-073: ТЦ 31|Ежедневно: 10-20|55.758813|37.751938
3511-001|город Череповец,Вологодская обл., Победы пр-кт, д. 200|Постамат|Постамат: PickPoint: 3511-001: ТРЦ Макси: Победы|Ежедневно: 8-23|59.119344|38.001007
5401-008|город Новосибирск,Новосибирская обл., Карла Маркса пл., д. 7|Постамат|Постамат: PickPoint: 5401-008: МФК СанСити|Ежедневно: 10-22|54.979964|82.897549
6601-003|город Екатеринбург,Свердловская обл., ул Академика Шварца, стр 1|Постамат|Постамат: PickPoint: 6601-003: ТРЦ Ботаника Молл|Ежедневно: 10-22|56.796659|60.612534
4605-011|город Курск,Курская обл., Черняховского ул., д. 38А|Постамат|Постамат: PickPoint: 4605-011: Пятерочка|Ежедневно: 8-22|51.673659|36.159249
6805-011|город Тамбов,Тамбовская обл., Карла Маркса ул., д. 175Б|Постамат|Постамат: PickPoint: 6805-011: Пятерочка|Ежедневно: 8-20|52.732959|41.449268
0801-001|город Элиста,Калмыкия респ., Номто Очирова ул., д. 7А|Постамат|Постамат: PickPoint: 0801-001: ТЦ Байрта|Ежедневно: 9-21|46.306271|44.268824
2411-001|город Норильск,Красноярский край, Комсомольская ул., д. 31|Постамат|Постамат: PickPoint: 2411-001: ТЦ Гостиный двор|Ежедневно: 11-20|69.34766|88.190687
7601-004|город Ярославль,Ярославская обл., Свободы ул., д. 3|Постамат|Постамат: PickPoint: 7601-004: ТЦ Ниагара|Ежедневно: 10-20|57.625141|39.883093
2401-006|город Красноярск,Красноярский край, Красной Армии ул., д. 10|Постамат|Постамат: PickPoint: 2401-006: ТК Квант|Ежедневно: 10-20|56.014161|92.855816
4221-002|город Прокопьевск,Кемеровская обл., Строителей пр-кт, д. 6|Постамат|Постамат: PickPoint: 4221-002: ТЦ Простор|Ежедневно: 8-22|53.865122|86.628882
7701-055|город Москва,Московская обл., Куликовская ул., д. 9|Постамат|Постамат: PickPoint: 7701-055: ТЦ Гранд-Апельсин|Ежедневно: 10-22|55.56738|37.561954
7701-053|город Москва,Московская обл., Тишинская пл., д. 1|Постамат|Постамат: PickPoint: 7701-053: ТЦ Тишинка|Ежедневно: 10-21|55.769144|37.583151
7701-054|город Москва,Московская обл., Маршала Бирюзова ул., д. 32|Постамат|Постамат: PickPoint: 7701-054: ТЦ Пятая Авеню|Ежедневно: 10-22|55.799512|37.48298
5001-029|город Сергиев Посад,Московская обл., Вокзальная пл., д. 1|Постамат|Постамат: PickPoint: 5001-029: ТЦ Преображенский|Ежедневно: 9-21|56.302593|38.135885
7702-060|город Москва,Московская обл., Сходненская ул., д. 56|ПВЗ|ПВЗ: PickPoint: 7702-060: ТЦ Калейдоскоп|Ежедневно: 10-20|55.850434|37.44497
6411-001|город Энгельс,Саратовская обл., Тельмана ул., д. 137|Постамат|Постамат: PickPoint: 6411-001: ТЦ Аврора|Ежедневно: 10-21|51.484238|46.128863
4805-013|город Липецк,Липецкая обл., Водопьянова ул., д. 18, пом. 1|Постамат|Постамат: PickPoint: 4805-013: Пятерочка|Ежедневно: 8-22|52.593067|39.545326
4805-018|город Липецк,Липецкая обл., Стаханова ул., д. 67|Постамат|Постамат: PickPoint: 4805-018: Пятерочка|Ежедневно: 8-22|52.576505|39.512619
5601-001|город Оренбург,Оренбургская обл., Дзержинского пр-кт, д. 23|Постамат|Постамат: PickPoint: 5601-001: ТЦ Север|Ежедневно: 10-22|51.83375|55.129028
7802-350|город Санкт-Петербург,Ленинградская обл., Дачный пр-кт, д. 24, к. 2|ПВЗ|ПВЗ: Ozon: 7802-350|Ежедневно: 10-21|59.840944|30.258053
2705-029|город Хабаровск,Хабаровский край, Джамбула ул., д. 36|Постамат|Постамат: PickPoint: 2705-029|Ежедневно: 8-23|48.490252|135.056342
3905-008|город Калининград,Калининградская обл., Советский пр-кт, д. 159|Постамат|Постамат: PickPoint: 3905-008: ТЦ Гранд|Ежедневно: 8-23|54.74326|20.466167
7701-056|город Москва,Московская обл., Рудневка ул., д. 19|Постамат|Постамат: PickPoint: 7701-056: ТЦ Зебра|Ежедневно: 8-23|55.716576|37.887387
3801-002|город Иркутск,Иркутская обл., Сергеева ул., д. 3Б/1|Постамат|Постамат: PickPoint: 3801-002: ТЦ Mega Home|Ежедневно: 10-20|52.266739|104.223367
5001-319|город Московский,Московская обл., 1-й мкр., д. 36А|Постамат|Постамат: PickPoint: 5001-319: Пятерочка|Ежедневно: 8-22|55.598105|37.354384
7701-915|город Москва,Московская обл., Внуковское поселение, Корнея Чуковского ул., д. 3|Постамат|Постамат: PickPoint: 7701-915: Торговый Центр|Ежедневно: 9-21|55.636402|37.328261
7802-351|город Санкт-Петербург,Ленинградская обл., Обуховской Обороны пр-кт, д. 75|ПВЗ|ПВЗ: PickPoint: 7802-351|Ежедневно: 9-21|59.901585|30.425247
7801-307|город Санкт-Петербург,Ленинградская обл., Богословская ул., д. 4. к. 1|Постамат|Постамат: PickPoint: 7801-307: Канцтовары|Ежедневно: 9-21|59.984039|30.379843
6345-004|город Новокуйбышевск,Самарская обл., Островского ул., д. 16|Постамат|Постамат: PickPoint: 6345-004: ТЦ Юбилейный|Ежедневно: 9-21|53.096879|49.962913
5202-075|город Нижний Новгород,Нижегородская обл., Советская пл., д. 7|ПВЗ|ПВЗ: Ситилинк: 5202-075: ТЦ Жар-Птица|Пн: Выходной; Вт-Вс: 9-20 (обед: 14:30-15)|56.295933|44.046726
3402-067|город Волгоград,Волгоградская обл., 64 Армии ул., д. 10|ПВЗ|ПВЗ: Ситилинк: 3402-067|Ежедневно: 10-20|48.603317|44.422203
4202-028|город Кемерово,Кемеровская обл., Шахтеров пр-кт, д. 107|ПВЗ|ПВЗ: Ситилинк: 4202-028: ТЦ 7-Я|Пн-Пт: 10-20; Сб: 10-19; Вс: 10-18|55.407668|86.123382
1642-009|город Нижнекамск,Татарстан респ., Менделеева ул., д. 17Б|ПВЗ|ПВЗ: Ozon: 1642-009: ТЦ АЯЗ|Ежедневно: 9-21|55.65112|51.838865
1635-001|город Альметьевск,Татарстан респ., Строителей пр-кт, д. 39|Постамат|Постамат: PickPoint: 1635-001: Торговый центр|Ежедневно: 9-21|54.908707|52.273676
5245-030|город Дзержинск,Нижегородская обл., Циолковского пр-кт, д. 21А|Постамат|Постамат: Халва: 5245-030: Магнит|Ежедневно: 8-22|56.233201|43.443919
4805-043|город Липецк,Липецкая обл., Опытная ул., д. 17В|Постамат|Постамат: Халва: 4805-043: Магнит Косметик|Ежедневно: 9:30-20:30|52.631405|39.540883
4405-016|город Кострома,Костромская обл., Московская ул., д. 31А/1|Постамат|Постамат: Халва: 4405-016: Магнит Косметик|Ежедневно: 9-21|57.75552|40.89388
2105-042|город Чебоксары,Чувашия респ., Эгерский б-р,  д. 47|Постамат|Постамат: Халва: 2105-042: Магнит Косметик|Ежедневно: 9-21|56.093051|47.285734
7415-047|город Магнитогорск,Челябинская обл., Пушкина пр-кт, д. 34|Постамат|Постамат: Халва: 7415-047: Магнит|Ежедневно: 8-22|53.389666|59.062806
2305-074|город Краснодар,Краснодарский край, 40-летия Победы ул., д. 97, стр. 1|Постамат|Постамат: Халва: 2305-074: Магнит Косметик|Ежедневно: 9-21:30|45.056187|39.028332
5001-158|город Ногинск,Московская обл., Декабристов ул., д. 9|Постамат|Постамат: PickPoint: 5001-158: Торговый Центр|Ежедневно: 9-21|55.865247|38.439443
7702-067|город Москва,Московская обл., Алтуфьевское шоссе, д. 86, к. 1|ПВЗ|ПВЗ: PickPoint: 7702-067: ТЦ Ареал|Ежедневно: 9-22 (обед: 14-14:45)|55.897841|37.588306
7701-703|город Москва,Московская обл., Куусинена ул., д. 2, к. 1|Постамат|Постамат: PickPoint: 7701-703: Торговый Центр|Ежедневно: 10-20|55.778284|37.517599
7701-706|город Москва,Московская обл., Народного ополчения ул., д. 22, стр. 2|Постамат|Постамат: PickPoint: 7701-706: ТЦ Европа|Ежедневно: 9-22|55.778598|37.48031
7701-724|город Москва,Московская обл., Северный б-р, д. 10|Постамат|Постамат: PickPoint: 7701-724: Торговый Центр|Ежедневно: 9-21|55.86796|37.616908
2901-002|город Архангельск,Архангельская обл., Нагорная ул., д. 1|Постамат|Постамат: PickPoint: 2901-002: ТЦ Гиппо|Ежедневно: 10-20|64.553774|40.551664
7801-030|город Санкт-Петербург,Ленинградская обл., Наставников пр-кт, д. 35, лит. А|Постамат|Постамат: PickPoint: 7801-030: ТЦ Ржевка|Ежедневно: 10-21|59.950082|30.488418
7701-060|город Москва,Московская обл., Тимирязевская ул., д. 2/3|Постамат|Постамат: PickPoint: 7701-060: ТЦ Парк 11|Ежедневно: 8-23|55.807818|37.573478
3605-093|город Воронеж,Воронежская обл., Ярославская ул., д. 24|Постамат|Постамат: PickPoint: 3605-093: Магазин Синторг|Ежедневно: 8-22|51.612059|39.23207
7201-002|город Тюмень,Тюменская обл., ул Республики, д 65|Постамат|Постамат: PickPoint: 7201-002: ТЦ Калинка|Ежедневно: 10-21|57.148606|65.550376
5001-027|город Чехов,Московская обл., Симферопольское шоссе, д. 1|Постамат|Постамат: PickPoint: 5001-027: ТЦ Карусель|Ежедневно: 10-22|55.161511|37.467958
2001-001|город Грозный,Чечня респ., ул Н.А.Назарбаева, зд 94|Постамат|Постамат: PickPoint: 2001-001: ТРЦ Firdaws|Ежедневно: 10-22|43.3289|45.683378
4701-065|город Тихвин,Ленинградская обл., 1А мкр., д. 22|Постамат|Постамат: PickPoint: 4701-065: Дикси|Ежедневно: 8-23|59.64354|33.557374
1605-144|город Казань,Татарстан респ., Мусы Джалиля ул., д. 8/44|Постамат|Постамат: PickPoint: 1605-144: ТРЦ Родина|Ежедневно: 8-22|55.791604|49.11192
6905-009|город Тверь,Тверская обл., Хрустальная ул., д. 43A|Постамат|Постамат: PickPoint: 6905-009: Пятерочка|Ежедневно: 9-22|56.894774|35.903416
5001-016|город Серпухов,Московская обл., Московское шоссе, д. 55|Постамат|Постамат: PickPoint: 5001-016: ТРК Б-класс|Ежедневно: 10-22|54.942179|37.40503
7701-063|город Москва,Московская обл., Пятницкое шоссе, д. 43|Постамат|Постамат: PickPoint: 7701-063: ТЦ Пятницкий Митино|Ежедневно: 9-22|55.857057|37.350185
7705-124|город Москва,Московская обл., Русаковская ул., д. 28 с.1Б|Постамат|Постамат: PickPoint: 7705-124: Пятерочка|Ежедневно: 8-23|55.788201|37.681649
5005-138|город Дмитров,Московская обл., Сиреневая ул., д. 2|Постамат|Постамат: PickPoint: 5005-138: Магнит|Ежедневно: 8-22|56.35584|37.549919
2205-026|город Барнаул,Алтайский край, Сергея Ускова ул., д. 33|Постамат|Постамат: PickPoint: 2205-026: Пятерочка|Ежедневно: 8-22|53.337994|83.654582
7701-072|город Москва,Московская обл., Ленинский пр-кт, д. 101|Постамат|Постамат: PickPoint: 7701-072: ТЦ Ленинский 101|Ежедневно: 10-22|55.666644|37.51528
4201-001|город Кемерово,Кемеровская обл., Химиков пр-кт, стр 39|Постамат|Постамат: PickPoint: 4201-001: ТРК Променад-2|Ежедневно: 10-21|55.3441|86.18175
6601-009|город Екатеринбург,Свердловская обл., ул Репина, стр 94|Постамат|Постамат: PickPoint: 6601-009: ТРЦ Радуга Парк|Ежедневно: 10-22|56.81702|60.53908
5002-047|город Электросталь,Московская обл., Ленина пр-кт, д. 33/15, пом. 01|ПВЗ|ПВЗ: PickPoint: 5002-047|Пн-Пт: 10-19; Сб: 10-18; Вс: 10-17|55.791794|38.442006
7402-079|город Челябинск,Челябинская обл., Кулибина ул., д. 1Б|ПВЗ|ПВЗ: Ситилинк: 7402-079: ТЦ Кулибин|Пн-Пт: 10-18:45 (обед: 14-15); Сб-Вс: 10-17 (обед: 14-15)|55.17271|61.480068
5402-106|город Новосибирск,Новосибирская обл., Широкая ул., д. 113/2|ПВЗ|ПВЗ: Ситилинк: 5402-106: ТЦ Широта|Пн: Выходной; Вт-Сб: 9-20 (обед: 13-13:30); Вс: Выходной|54.99321|82.849625
5505-042|город Омск,Омская обл., Архитекторов б-р, д. 5|Постамат|Постамат: PickPoint: 5505-042: Пятерочка|Ежедневно: 8-22|54.989971|73.307881
5005-139|город Орехово-Зуево,Московская обл., Бондаренко ул., д. 1|Постамат|Постамат: PickPoint: 5005-139: Пятерочка|Ежедневно: 8-23|55.793252|38.930128
5901-018|город Пермь,Пермский край, Парковый пр-кт, д. 17|Постамат|Постамат: PickPoint: 5901-018: ТЦ Земляника|Ежедневно: 10-21|57.998988|56.155069
7701-065|город Москва,Московская обл., Яблочкова ул., д. 21А|Постамат|Постамат: PickPoint: 7701-065: ТЦ Тимирязевский|Ежедневно: 10-21|55.819486|37.57825
7301-003|город Ульяновск,Ульяновская обл., Рябикова ул., д. 49Б|Постамат|Постамат: PickPoint: 7301-003: ТЦ Dars|Ежедневно: 10-21|54.277246|48.293699
7702-099|город Москва,Московская обл.,, тестовая запись (7702-099)|ПВЗ|ПВЗ: PickPoint: 7702-099|Ежедневно: 10-19|55.70966|37.712106
2112-006|город Новочебоксарск,Чувашия респ., Винокурова ул., д. 99|ПВЗ|ПВЗ: Ситилинк: 2112-006|Ежедневно: 9-21|56.112736|47.458057
7702-753|город Москва,Московская обл., Милашенкова ул., д. 10|ПВЗ|ПВЗ: Ситилинк: 7702-753|Ежедневно: 10-21 (обед: 14-15)|55.826038|37.583412
7702-754|город Москва,Московская обл., Осенний б-р, д. 15|ПВЗ|ПВЗ: Ситилинк: 7702-754|Ежедневно: 10-21 (обед: 14-15)|55.759987|37.406151
5901-036|город Пермь,Пермский край, Николая Островского ул., д. 93Д|Постамат|Постамат: PickPoint: 5901-036: STRELA|Ежедневно: 9-21|58.000965|56.266705
2201-001|город Барнаул,Алтайский край, Малахова ул., д. 86B|Постамат|Постамат: PickPoint: 2201-001: ТРЦ Весна|Ежедневно: 10-22|53.356953|83.696907
4802-023|город Липецк,Липецкая обл., Шуминского ул., д. 6, пом. 7|ПВЗ|ПВЗ: Ozon: 4802-023|Ежедневно: 9-21|52.586038|39.518434
7701-708|город Москва,Московская обл., Кавказский б-р, 17|Постамат|Постамат: PickPoint: 7701-708: РЦ Эльбрус|Ежедневно: 10-22|55.630924|37.670672
7701-709|город Москва,Московская обл., Юных ленинцев ул., д. 52|Постамат|Постамат: PickPoint: 7701-709: РЦ Высота|Ежедневно: 10-22|55.699781|37.765381
7701-710|город Москва,Московская обл., Инженерная ул., д. 1|Постамат|Постамат: PickPoint: 7701-710: РЦ Марс|Ежедневно: 10-22|55.878662|37.582331
5002-989|город Королёв,Московская обл., Ленина ул., д. 27|ПВЗ|ПВЗ: Ozon: 5002-989|Ежедневно: 10-20|55.915827|37.80711
3601-047|город Воронеж,Воронежская обл., Загоровского ул., д. 1|Постамат|Постамат: PickPoint: 3601-047: ТЦ Пять столиц|Ежедневно: 10-22|51.714042|39.191232
7801-309|город Санкт-Петербург,Ленинградская обл., ул Русановская, д 11 литера А|Постамат|Постамат: PickPoint: 7801-309: Магазин кальянов Huff and Puff|Ежедневно: 12-22|59.863049|30.506265
4705-075|город Шушары,Ленинградская обл., Первомайская ул., д. 24|Постамат|Постамат: Халва: 4705-075: Магнит Косметик|Ежедневно: 10-22|59.80712|30.371519
4215-056|город Новокузнецк,Кемеровская обл., Ленина ул., д. 33Г|Постамат|Постамат: Халва: 4215-056: Магнит Косметик|Ежедневно: 9-21|53.773588|87.195307
2305-073|город Краснодар,Краснодарский край, им. Петра Метальникова ул., д. 5, к. 3|Постамат|Постамат: Халва: 2305-073: Магнит Косметик|Ежедневно: 9-21:30|45.093999|39.009104
2915-015|город Северодвинск,Архангельская обл., Морской пр-кт, д. 1Б|Постамат|Постамат: Халва: 2915-015: Магнит Косметик|Ежедневно: 10-21|64.554086|39.778569
5205-126|город Нижний Новгород,Нижегородская обл., Краснозвездная ул., д. 7А|Постамат|Постамат: Халва: 5205-126: Магнит Косметик|Ежедневно: 9:30-21|56.285985|43.984979
5245-032|город Дзержинск,Нижегородская обл., Чкалова пр-кт, д. 48|Постамат|Постамат: Халва: 5245-032: Магнит|Ежедневно: 8-22|56.252282|43.466422
5245-031|город Дзержинск,Нижегородская обл., Ленина пр-кт, д. 49|Постамат|Постамат: Халва: 5245-031: Магнит|Ежедневно: 8-22|56.241022|43.448984
6995-008|город Торжок,Тверская обл., Калининское шоссе, д. 16К|Постамат|Постамат: Халва: 6995-008: Магнит Косметик|Ежедневно: 9-21|57.030556|34.994686
4215-055|город Новокузнецк,Кемеровская обл., Кирова ул., д. 50|Постамат|Постамат: Халва: 4215-055: Магнит Косметик|Ежедневно: 9:30-21:30|53.757049|87.140715
2105-046|город Чебоксары,Чувашия респ., ул. Т.Кривова, д. 4|Постамат|Постамат: Халва: 2105-046: Магнит Косметик|Ежедневно: 9:30-21|56.144492|47.195042
2105-045|город Чебоксары,Чувашия респ., б-р. А.Миттова, зд. 20А|Постамат|Постамат: Халва: 2105-045: Магнит Косметик|Ежедневно: 10-21 (обед: 14:30-15)|56.111765|47.188286
2105-044|город Чебоксары,Чувашия респ., Эгерский б-р,  д. 33Б|Постамат|Постамат: Халва: 2105-044: Магнит Косметик|Ежедневно: 9-21|56.099039|47.282502
2105-043|город Чебоксары,Чувашия респ., Рихарда Зорге ул., д. 19|Постамат|Постамат: Халва: 2105-043: Магнит Косметик|Ежедневно: 9-21|56.074889|47.281471
5001-718|город Нахабино,Московская обл., Красноармейская ул., д. 68|Постамат|Постамат: PickPoint: 5001-718: ТЦ Берег|Ежедневно: 8-23|55.850717|37.177766
2211-001|город Бийск,Алтайский край, Васильева ул., д. 26|Постамат|Постамат: PickPoint: 2211-001: ТЦ Приобье|Ежедневно: 10-21|52.511891|85.156354
6155-003|город Азов,Ростовская обл., Привокзальная ул., д. 4|Постамат|Постамат: PickPoint: 6155-003|Ежедневно: 6-18|47.100966|39.412909
4215-032|город Новокузнецк,Кемеровская обл., Звездова ул., д. 6|Постамат|Постамат: PickPoint: 4215-032|Ежедневно: 10-22|53.90651|87.123931
7415-002|город Магнитогорск,Челябинская обл., Маяковского ул., д. 52А|Постамат|Постамат: PickPoint: 7415-002: Фикс-Прайс|Ежедневно: 9-21|53.3922|59.061867
