Номер постамата|Дата ввода в эксплуатацию|Адрес постамата|Режим работы|Аренда|Точность|Широта|Долгота
PS1|2020-03-31 00:00:00|Воронежская область,город Воронеж, бульвар Победы, дом 22а|ПН-ПТ 00:00-23:59, СБ 00:00-23:59, ВС 00:00-23:59|НЕТ|95.92|51.71336999242817|39.16708003690795
PS10|2020-03-31 00:00:00|Приморский край,город Владивосток, проспект Красного Знамени, дом 59|ПН-ПТ 09:00-19:00, СБ 10:00-16:30, ВС выходной|НЕТ|96.55|43.12731001671744|131.9070799704209
PS101|2020-03-31 00:00:00|г Москва, Старопетровский проезд, дом 1 строение 2|ПН-ПТ 00:00-23:59, СБ 00:00-23:59, ВС 00:00-23:59|НЕТ|91.22|55.82315998888723|37.50080998870581
PS102|2020-03-31 00:00:00|г Москва, Тимирязевский район , Дмитровское шоссе, дом 65 корпус 1|ПН-ПТ 00:00-23:59, СБ 00:00-23:59, ВС 00:00-23:59|НЕТ|89.2|55.84841001119855|37.56628002858082
PS103|2020-03-31 00:00:00|г Москва, Коровинское шоссе, дом 20 корпус 1|ПН-ПТ 08:30-19:30, СБ 09:00-15:30, ВС выходной|НЕТ|92.0|55.87962436050076|37.52167269540571
PS105|2020-03-31 00:00:00|г Москва, Чертаново Южное район ,улица Академика Янгеля, дом 4 корпус 2|ПН-ПТ 00:00-23:59, СБ 00:00-23:59, ВС 00:00-23:59|НЕТ|89.82|55.59612000621675|37.59320001937132
PS107|2020-03-31 00:00:00|г Москва, Лубянский проезд, дом 17|ПН-ПТ 10:00-20:00, СБ-ВС выходной|НЕТ|100.0|55.75601998053307|37.63324003556428
PS109|2020-03-31 00:00:00|Московская область,город Королёв, мкр Юбилейный,улица М.К.Тихонравова, дом 36|ПН-ПТ 09:00-18:30, СБ 10:00-15:00, ВС выходной|НЕТ|89.59|55.93654999785895|37.8459399649156
PS11|2020-03-31 00:00:00|Иркутская область,город Иркутск, Кировский район ,улица Нижняя Набережная, дом 10|ПН-ПТ 00:00-23:59, СБ 00:00-23:59, ВС 00:00-23:59|НЕТ|88.82|52.29290001666774|104.2873900310543
PS110|2020-03-31 00:00:00|Тульская область,город Тула,улица Вильямса, дом 22|ПН-ПТ 00:00-23:59, СБ 00:00-23:59, ВС 00:00-23:59|НЕТ|95.24|54.20615998292629|37.68711002435867
PS111|2020-03-31 00:00:00|Тульская область,город Тула, Центральный район , поселок Южный,улица Автомобилистов, дом 26|ПН-ПТ 08:00-18:30, СБ 09:00-14:00, ВС выходной|НЕТ|97.42|54.10199000000006|37.60539000000006
PS112|2020-03-31 00:00:00|Ивановская область,город Иваново, проспект Ленина, дом 116|ПН-ПТ 00:00-23:59, СБ 00:00-23:59, ВС 00:00-23:59|НЕТ|95.92|57.02067998099173|40.96905997068112
PS113|2020-03-31 00:00:00|Ивановская область,город Иваново,улица Бубнова, дом 47|ПН-ПТ 00:00-23:59, СБ 00:00-23:59, ВС 00:00-23:59|НЕТ|95.65|56.9949899925827|40.99199000792206
PS115|2020-03-31 00:00:00|Ярославская область,город Ярославль,улица Индустриальная, дом 37|ПН-ПТ 08:30-18:00, СБ 09:00-15:00, ВС выходной|НЕТ|96.43|57.55123001874946|39.93158001449498
PS116|2020-03-31 00:00:00|Владимирская область,город Владимир,улица Мира, дом 25|ПН-ПТ 00:00-23:59, СБ 00:00-23:59, ВС 00:00-23:59|НЕТ|95.65|56.13965998223966|40.40167997609902
PS117|2020-03-31 00:00:00|Пермский край,город Пермь, Индустриальный район ,улица Мира, дом 45|ПН-ПТ 00:00-23:59, СБ 00:00-23:59, ВС 00:00-23:59|НЕТ|99.09|57.9768299953904|56.18338996366757
PS118|2020-03-31 00:00:00|г Санкт-Петербург, Московский проспект , дом 172|ПН-ПТ 00:00-23:59, СБ 00:00-23:59, ВС 00:00-23:59|НЕТ|100.0|59.87725001754112|30.32098002281086
PS120|2020-03-31 00:00:00|Брянская область,город Брянск, проспект Ленина, дом 10Б|ПН-ПТ 00:00-23:59, СБ 00:00-23:59, ВС 00:00-23:59|НЕТ|95.65|53.23703997919199|34.35903999691786
PS121|2020-03-31 00:00:00|Воронежская область,город Воронеж, Московский проспект , дом 5|ПН-ПТ 00:00-23:59, СБ 00:00-23:59, ВС 00:00-23:59|НЕТ|96.91|51.67980998367062|39.18418004139522
PS123|2020-03-31 00:00:00|Свердловская область,город Екатеринбург, Чкаловский район ,улица Щербакова, дом 20|ПН-ПТ 00:00-23:59, СБ 00:00-23:59, ВС 00:00-23:59|НЕТ|99.29|56.78339999484987|60.654849987782
PS124|2020-03-31 00:00:00|Свердловская область,город Екатеринбург, Железнодорожный район ,улица Мельковская, дом 2Б|ПН-ПТ 00:00-23:59, СБ 00:00-23:59, ВС 00:00-23:59|НЕТ|99.35|56.84991999382615|60.60314001543594
PS126|2020-03-31 00:00:00|Челябинская область,город Челябинск,улица 40-летия Победы, дом 44|ПН-ПТ 00:00-23:59, СБ 00:00-23:59, ВС 00:00-23:59|НЕТ|96.36|55.17547000440558|61.31232999326303
PS128|2020-03-31 00:00:00|Пермский край,город Пермь, Свердловский район ,улица Революции, дом 7|ПН-ПТ 00:00-23:59, СБ 00:00-23:59, ВС 00:00-23:59|НЕТ|99.12|58.00660000089863|56.27032999706935
PS129|2020-03-31 00:00:00|Пермский край,город Пермь, Мотовилихинский район ,улица Ивана Франко, дом 46|ПН-ВС 06:00-23:00|НЕТ|99.21|58.06195999871099|56.35973003523412
PS13|2020-03-31 00:00:00|Нижегородская область,город Нижний Новгород,улица Коминтерна, дом 4/2|ПН-ПТ 00:00-23:59, СБ 00:00-23:59, ВС 00:00-23:59|НЕТ|95.93|56.3368900196333|43.88406000280941
PS130|2020-03-31 00:00:00|Республика Татарстан,город Казань, Вахитовский район ,улица Бутлерова, дом 44|ПН-ПТ 00:00-23:59, СБ 00:00-23:59, ВС 00:00-23:59|НЕТ|99.23|55.78921001208442|49.13877996110301
PS132|2020-03-31 00:00:00|г. Казань, улица Чистопольская, дом 26|ПН-ПТ 00:00-23:59, СБ 00:00-23:59, ВС 00:00-23:59|НЕТ|100.0|55.81934269715268|49.11663497291349
PS134|2020-03-31 00:00:00|Нижегородская область,город Нижний Новгород, Нижегородский район ,улица Белинского, дом 38|ПН-ПТ 00:00-23:59, СБ 00:00-23:59, ВС 00:00-23:59|НЕТ|99.35|56.31044000215383|43.99796998314466
PS135|2020-03-31 00:00:00|Нижегородская область,город Нижний Новгород, Советский район ,улица Ванеева, дом 24|ПН-ПТ 00:00-23:59, СБ 00:00-23:59, ВС 00:00-23:59|НЕТ|99.29|56.30881001535283|44.02336999961332
PS136|2020-03-31 00:00:00|Пермский край,город Пермь, Свердловский район ,улица Героев Хасана, дом 8|ПН-ПТ 00:00-23:59, СБ 00:00-23:59, ВС 00:00-23:59|НЕТ|99.17|57.99320001993013|56.25551003788388
PS137|2020-03-31 00:00:00|Нижегородская область,город Нижний Новгород,улица Березовская, дом 95|ПН-ПТ 09:00-18:00, СБ-ВС выходной|НЕТ|96.67|56.33501000066056|43.87435996154062
PS138|2020-03-31 00:00:00|Омская область,город Омск, Центральный округ,улица Герцена, дом 232 корпус 1|ПН-ВС 06:00-23:59|НЕТ|98.1|55.02372998046863|73.37655997526673
PS139|2020-03-31 00:00:00|Омская область,город Омск, Кировский округ,улица 70 лет Октября, дом 12 корпус 1|ПН-ПТ 00:00-23:59, СБ 00:00-23:59, ВС 00:00-23:59|НЕТ|98.15|54.98577001736768|73.31304995963026
PS14|2020-03-31 00:00:00|Самарская область,город Тольятти,улица Юбилейная, влд 55|ПН-ПТ 00:00-23:59, СБ 00:00-23:59, ВС 00:00-23:59|НЕТ|92.4|53.50898001506411|49.2780300272992
PS141|2020-03-31 00:00:00|г. Красноярск, улица Сурикова, дом 12|ПН-ВС 06:00-23:59|НЕТ|100.0|56.01022998616577|92.8770599760474
PS143|2020-03-31 00:00:00|Красноярский край,город Красноярск, Центральный район ,улица Дмитрия Мартынова, дом 18|ПН-ВС 06:00-23:59|НЕТ|99.32|56.03850000819122|92.87691002379961
PS145|2020-03-31 00:00:00|Волгоградская область,город Волгоград, Советский район ,улицаимени Тулака, дом 40|ПН-ПТ 00:00-23:59, СБ 00:00-23:59, ВС 00:00-23:59|НЕТ|96.71|48.67555001688913|44.46882004126385
PS146|2020-03-31 00:00:00|Волгоградская область,город Волгоград, Советский район , тер Рабочий поселок Горьковский,улица Волгоградская, дом 13|ПН-ПТ 00:00-23:59, СБ 00:00-23:59, ВС 00:00-23:59|НЕТ|96.8|48.68697999915432|44.32214000463586
PS147|2020-03-31 00:00:00|Волгоградская область,город Волгоград,улицаименимаршала Еременко, дом 98|ПН-ПТ 00:00-23:59, СБ 00:00-23:59, ВС 00:00-23:59|НЕТ|85.08|48.77560999187438|44.55290997612892
PS149|2020-03-31 00:00:00|Самарская область,город Самара, Октябрьский район ,улица Ново-Садовая, дом 151|ПН-ПТ 00:00-23:59, СБ 00:00-23:59, ВС 00:00-23:59|НЕТ|99.23|53.21656001415874|50.15033997136649
PS15|2020-03-31 00:00:00|Новосибирская область,город Новосибирск, Дзержинский район ,улица Кошурникова, дом 8/1|ПН-ПТ 00:00-23:59, СБ 00:00-23:59, ВС 00:00-23:59|НЕТ|99.18|55.04294000335176|82.95133001308483
PS150|2020-03-31 00:00:00|Самарская область,город Самара, Советский район ,улица Гагарина, дом 161|ПН-ПТ 00:00-23:59, СБ 00:00-23:59, ВС 00:00-23:59|НЕТ|99.17|53.20141001753575|50.2260200074995
PS156|2020-03-31 00:00:00|г Москва, район Дорогомилово, Кутузовский проспект , дом 32|ПН 09:00 - 18:00; ВТ 09:00 - 18:00; СР 09:00 - 18:00; ЧТ 09:00 - 18:00; ПТ 09:00 - 16:45; СБ  - ; ВС  - |НЕТ|94.0|55.74040998506379|37.53209996853587
PS17|2020-03-31 00:00:00|Свердловская область,город Екатеринбург,улица Тверитина, дом 34|ПН-ПТ 00:00-23:59, СБ 00:00-23:59, ВС 00:00-23:59|НЕТ|96.36|56.82298001219658|60.62632000102957
PS19|2020-03-31 00:00:00|Ростовская область,город Ростов-на-Дону,улица Евдокимова, дом 37|ПН-ПТ 09:00-18:00, СБ-ВС выходной|НЕТ|96.3|47.27403998248002|39.71237002858535
PS2020|2020-03-31 00:00:00|г. Москва, бульвар Цветной, д. 2|ПН 09:00 - 20:00; ВТ 09:00 - 20:00; СР 09:00 - 20:00; ЧТ 09:00 - 20:00; ПТ 09:00 - 20:00; СБ 10:00 - 15:00; ВС  - |НЕТ|97.28|55.76822998270777|37.62317999155408
PS26|2020-03-31 00:00:00|Ивановская область,город Иваново,улица Лежневская, дом 157|ПН-ВС 00:00-23:59|НЕТ|96.0|56.97228999667442|40.97479000732991
PS27|2020-03-31 00:00:00|Тульская область,город Тула, Центральный район , Крестовоздвиженская пл, дом 1|ПН-ПТ 00:00-23:59, СБ 00:00-23:59, ВС 00:00-23:59|НЕТ|96.9|54.19620001884002|37.61756000929398
PS30|2020-03-31 00:00:00|г Москва, Алтуфьевское шоссе, дом 8|ПН-ПТ 00:00-23:59, СБ 00:00-23:59, ВС 00:00-23:59|НЕТ|100.0|55.85281000745147|37.58579997233386
PS31|2020-03-31 00:00:00|г Москва, район Южное Бутово, бульвар Адмирала Ушакова, дом 5|ПН-ПТ 00:00-23:59, СБ 00:00-23:59, ВС 00:00-23:59|НЕТ|94.08|55.54698998366808|37.55266999711873
PS32|2020-03-31 00:00:00|г Москва, Каширское шоссе, дом 26 корпус 2|ПН-ПТ 10:00-19:00, СБ 11:00-16:00, ВС выходной|НЕТ|91.52|55.65320001247022|37.64605998883306
PS35|2020-03-31 00:00:00|Московская область,город Домодедово,улица Советская, дом 1|ПН-ПТ 09:00-19:00, СБ 09:00-16:00, ВС выходной|НЕТ|96.0|55.43925000607933|37.77079000033942
PS36|2020-03-31 00:00:00|г Москва, Таганский район ,улица Земляной Вал, дом 41 строение 1|ПН-ПТ 00:00-23:59, СБ 00:00-23:59, ВС 00:00-23:59|НЕТ|87.31|55.75392002042099|37.65741998220673
PS38|2020-03-31 00:00:00|г Москва, район Якиманка,улица Шаболовка, дом 10 корпус 2|ПН-СБ 10:00-20:00, ВС выходной|НЕТ|87.85|55.72348000748244|37.61037001275008
PS39|2020-03-31 00:00:00|г Москва, район Замоскворечье,улица Новокузнецкая, дом 16-18/10 строение 3|ПН-ПТ 00:00-23:59, СБ 00:00-23:59, ВС 00:00-23:59|НЕТ|86.51|55.73705998982166|37.62977998593345
PS40|2020-03-31 00:00:00|Ярославская область,город Ярославль,улица Советская, дом 34|ПН-ПТ 00:00-23:59, СБ 00:00-23:59, ВС 00:00-23:59|НЕТ|96.08|57.63567999826543|39.88297000521933
PS42|2020-03-31 00:00:00|г Москва,улица Селезневская, дом 30 корпус Б-В|ПН-ПТ 00:00-23:59, СБ 00:00-23:59, ВС 00:00-23:59|НЕТ|91.35|55.78095863356967|37.61064342658373
PS46|2020-03-31 00:00:00|г Москва,улица Саянская, дом 18|ПН-ПТ 00:00-23:59, СБ 00:00-23:59, ВС 00:00-23:59|НЕТ|100.0|55.76691000059569|37.83430999044063
PS48|2020-03-31 00:00:00|г Москва, район Кузьминки, Волгоградский проспект , дом 119А|ПН-ПТ 00:00-23:59, СБ 00:00-23:59, ВС 00:00-23:59|НЕТ|94.08|55.70628000689032|37.76537001028908
PS49|2020-03-31 00:00:00|г Москва, район Выхино-Жулебино,улица Генерала Кузнецова, дом 28 корпус 1|ПН-ПТ 09:00-19:30, СБ 09:00-16:30, ВС выходной|НЕТ|90.24|55.68292110009898|37.85284965365567
PS52|2020-03-31 00:00:00|г Москва,улица Матвеевская, дом 2|ПН-ПТ 08:30-20:30, СБ 09:00-16:30, ВС выходной|НЕТ|100.0|55.70538000003685|37.47917001018263
PS53|2020-03-31 00:00:00|г Москва, район Щукино,улица Народного Ополчения, дом 39 корпус 1|ПН-ПТ 00:00-23:59, СБ 00:00-23:59, ВС 00:00-23:59|НЕТ|89.2|55.79113966365717|37.48922644798848
PS55|2020-03-31 00:00:00|г Москва, Коровинское шоссе, дом 21 корпус 1|ПН-ПТ 00:00-23:59, СБ 00:00-23:59, ВС 00:00-23:59|НЕТ|92.0|55.87640196875137|37.52475094930748
PS56|2020-03-31 00:00:00|г Москва,улица Римского-Корсакова, дом 2|ПН-ПТ 00:00-23:59, СБ 00:00-23:59, ВС 00:00-23:59|НЕТ|100.0|55.86940001504001|37.59127000234614
PS9|2020-03-31 00:00:00|Хабаровский край,город Хабаровск,улица Гамарника, дом 12|ПН-ПТ 09:00-18:30, СБ-ВС выходной|НЕТ|95.83|48.46995999499688|135.0773299928183
PS163|2020-07-16 00:00:00|Астраханская область,город Астрахань,улица Космонавта Комарова, строение 65Г|ПН-ПТ 00:00-23:59, СБ 00:00-23:59, ВС 00:00-23:59|НЕТ|87.63|46.35693999769023|48.11846002383086
PS169|2020-07-16 00:00:00|Волгоградская область,город Волжский, проспект имени Ленина, дом 120А|ПН-ПТ 08:30-17:30, СБ-ВС выходной|НЕТ|90.68|48.78653999361515|44.59134997082472
PS188|2020-07-16 00:00:00|Ростовская область,город Ростов-на-Дону, Буденновский проспект , дом 85|ПН-ПТ 08:30-19:00, СБ 08:30-15:30, ВС выходной|НЕТ|96.61|47.23055999131432|39.70265003838699
PS167|2020-07-23 00:00:00|Астраханская область,город Астрахань,улица Кубанская, дом 64|ПН-ПТ 00:00-23:59, СБ 00:00-23:59, ВС 00:00-23:59|НЕТ|96.15|46.3258134517469|48.03923755423325
PS168|2020-07-23 00:00:00|Астраханская область,город Астрахань,улица Парковая, дом 27|ПН-ПТ 08:00-17:00, СБ-ВС выходной|НЕТ|96.08|46.28244000779577|47.93935995918667
PS194|2020-07-23 00:00:00|г Москва, Савеловский район , Петровско-Разумовский проезд, дом 24 корпус 2|ПН-ПТ 00:00-23:59, СБ 00:00-23:59, ВС 00:00-23:59|НЕТ|90.37|55.80188180720368|37.56447008318551
PS202|2020-07-23 00:00:00|г Москва, район Соколиная Гора,улица Щербаковская, дом 53 строение 1|ПН-ПТ 00:00-23:59, СБ 00:00-23:59, ВС 00:00-23:59|НЕТ|88.28|55.78361002066342|37.73809999122196
PS203|2020-07-23 00:00:00|г Москва, район Северное Измайлово, Сиреневый бульвар , дом 29/45 корпус 3|ПН-ПТ 00:00-23:59, СБ 00:00-23:59, ВС 00:00-23:59|НЕТ|88.77|55.80315226371948|37.79762211594828
PS205|2020-07-23 00:00:00|г Москва, район Вешняки,улица Вешняковская, дом 18А|ПН-ВС 10:00-21:00|НЕТ|93.41|55.72335000416419|37.82515996965819
PS271|2020-07-23 00:00:00|г Москва, Можайское шоссе, дом 28|ПН-ПТ 09:00-19:00, СБ-ВС выходной|НЕТ|100.0|55.7202300083452|37.42159999786949
PS272|2020-07-23 00:00:00|г Москва,улица Демьяна Бедного, дом 5|ПН-ПТ 08:30-19:30, СБ 09:00-16:30, ВС выходной|НЕТ|100.0|55.77273001697506|37.48698001610441
PS279|2020-07-23 00:00:00|г Москва,улица Борисовские Пруды, дом 12 корпус 1|ПН-ПТ 10:30-20:00, СБ 11:00-17:00, ВС выходной|НЕТ|93.0|55.63653179523097|37.74193774678377
PS164|2020-07-24 00:00:00|Астраханская область,город Астрахань,улица Николая Островского, дом 152А|ПН-ПТ 00:00-23:59, СБ 00:00-23:59, ВС 00:00-23:59|НЕТ|96.83|46.33803000503127|48.0676100347506
PS195|2020-07-24 00:00:00|г Москва, Бескудниковский район , Дмитровское шоссе, дом 64 корпус 2|ПН-ПТ 00:00-23:59, СБ 00:00-23:59, ВС 00:00-23:59|НЕТ|88.31|55.85515984471946|37.56248197065486
PS196|2020-07-24 00:00:00|г Москва, Дмитровское шоссе, дом 98|ПН-ПТ 00:00-23:59, СБ 00:00-23:59, ВС 00:00-23:59|НЕТ|100.0|55.87935000466152|37.54716995989307
PS211|2020-07-24 00:00:00|г Москва, Ярославское шоссе, дом 28|ПН-ПТ 00:00-23:59, СБ 00:00-23:59, ВС 00:00-23:59|НЕТ|100.0|55.86070999310385|37.69394001816119
PS216|2020-07-24 00:00:00|г Москва,улица Шипиловская, дом 32|ПН-ПТ 00:00-23:59, СБ 00:00-23:59, ВС 00:00-23:59|НЕТ|100.0|55.61993001756255|37.71905002077997
PS286|2020-07-24 00:00:00|г Москва,улица Краснопрудная, дом 11|ПН-ПТ 08:30-20:30, СБ 09:00-17:00, ВС выходной|НЕТ|100.0|55.77938998387168|37.66492999981386
PS288|2020-07-24 00:00:00|г Москва, Сокольническая пл, дом 9|ПН-ПТ 00:00-23:59, СБ 00:00-23:59, ВС 00:00-23:59|НЕТ|100.0|55.79041998171732|37.68039000112583
PS296|2020-07-24 00:00:00|г Москва,улица Смольная, дом 7|ПН-ПТ 08:30-19:30, СБ 09:00-16:00, ВС выходной|НЕТ|100.0|55.84570999063817|37.4993399705269
PS300|2020-07-24 00:00:00|г Москва,город Зеленоград, район Савелки, Савёлкинский проезд, дом 6|ПН-ПТ 00:00-23:59, СБ 00:00-23:59, ВС 00:00-23:59|НЕТ|96.66|55.99113001767134|37.21841000822297
PS304|2020-07-24 00:00:00|г Москва,улица Нагатинская, дом 16|ПН-ПТ 00:00-23:59, СБ 00:00-23:59, ВС 00:00-23:59|НЕТ|100.0|55.67877998840007|37.64291996026549
PS312|2020-07-24 00:00:00|г Москва, район Южное Тушино,улица Сходненская, дом 9|ПН-ПТ 00:00-23:59, СБ 00:00-23:59, ВС 00:00-23:59|НЕТ|96.79|55.83948998983925|37.43745998360097
PS316|2020-07-24 00:00:00|г Москва, поселение Сосенское, Новомосковский округ, поселок Коммунарка,улица Александры Монаховой, дом 5 корпус 2|ПН-ПТ 08:30-20:00, СБ 09:00-16:00, ВС выходной|НЕТ|81.67|55.57245998902826|37.47558004105258
PS338|2020-07-24 00:00:00|г Москва,улица Енисейская, дом 29|ПН-ПТ 00:00-23:59, СБ 00:00-23:59, ВС 00:00-23:59|НЕТ|100.0|55.87293001165284|37.6645499643239
PS340|2020-07-24 00:00:00|г Москва,улица Кантемировская, дом 3 корпус 5 строение 2|ПН-ПТ 00:00-23:59, СБ 00:00-23:59, ВС 00:00-23:59|НЕТ|86.09|55.50375998276462|36.92483996829245
PS198|2020-07-25 00:00:00|г Москва, Мичуринский проспект , дом 26|ПН-ПТ 08:30-19:30, СБ 09:00-17:00, ВС выходной|НЕТ|100.0|55.69991998639884|37.50081996317058
PS206|2020-07-25 00:00:00|г Москва,улица Дмитриевского, дом 21|ПН-ПТ 00:00-23:59, СБ 00:00-23:59, ВС 00:00-23:59|НЕТ|100.0|55.70946999160083|37.89461996308276
PS267|2020-07-25 00:00:00|г Москва, район Текстильщики, Волгоградский проспект , дом 63|ПН-ПТ 09:00-20:00, СБ 09:30-17:00, ВС выходной|НЕТ|97.93|55.70997001403475|37.73537997982248
PS274|2020-07-25 00:00:00|г Москва, Ломоносовский район , Ленинский проспект , дом 89/2|ПН-ПТ 09:00-19:30, СБ 10:00-17:00, ВС выходной|НЕТ|91.43|55.6779000142952|37.53163996968959
PS281|2020-07-25 00:00:00|г Москва, Можайский район , Можайское шоссе, дом 41 корпус 1|ПН-ПТ 08:30-19:30, СБ 09:00-16:30, ВС выходной|НЕТ|88.07|55.71706001447376|37.41159996828605
PS284|2020-07-25 00:00:00|г Москва,улица Миклухо-Маклая, дом 55|ПН-ПТ 08:30-19:30, СБ 09:00-16:00, ВС выходной|НЕТ|100.0|55.64124000055773|37.53324996565155
PS291|2020-07-25 00:00:00|г Москва,улица Пронская, дом 2|ПН-ПТ 09:00-20:00, СБ 09:00-15:00, ВС выходной|НЕТ|100.0|55.70319001828469|37.84569999102769
PS305|2020-07-25 00:00:00|г Москва, Волжский бульвар , дом 7|ПН-ПТ 00:00-23:59, СБ 00:00-23:59, ВС 00:00-23:59|НЕТ|100.0|55.71650001952261|37.74564001604247
PS317|2020-07-25 00:00:00|г Москва, поселение Мосрентген, поселок завода Мосрентген, дом 32|ПН выходной, ВТ-ПТ 09:00-18:30, СБ 09:00-13:45, ВС выходной|НЕТ|88.89|55.62029999476871|37.47277998247779
PS290|2020-07-26 00:00:00|г Москва, район Замоскворечье,улица Люсиновская, дом 26-28 корпус 6|ПН-ПТ 00:00-23:59, СБ 00:00-23:59, ВС 00:00-23:59|НЕТ|88.1|55.72537955986686|37.6220165910432
PS320|2020-07-26 00:00:00|г Москва,улица Каховка, дом 23|ПН-ПТ 00:00-23:59, СБ 00:00-23:59, ВС 00:00-23:59|НЕТ|100.0|55.6545100201175|37.5745200261355
PS321|2020-07-26 00:00:00|г Москва,улица Стромынка, дом 19 корпус 1|ПН-ПТ 00:00-23:59, СБ 00:00-23:59, ВС 00:00-23:59|НЕТ|91.52|55.79449612455313|37.69808443716167
PS330|2020-07-26 00:00:00|г Москва,улица Кировоградская, дом 8 корпус 3|ПН-ПТ 00:00-23:59, СБ 00:00-23:59, ВС 00:00-23:59|НЕТ|92.43|55.62720023607944|37.61100216512465
PS341|2020-07-26 00:00:00|г Москва, Волгоградский проспект , дом 92|ПН-ПТ 00:00-23:59, СБ 00:00-23:59, ВС 00:00-23:59|НЕТ|100.0|55.70424999376024|37.77036000870652
PS165|2020-07-27 00:00:00|Астраханская область,город Астрахань,улица Немова, дом 34А|ПН-ПТ 08:30-18:00, СБ-ВС выходной|НЕТ|94.9|46.28059061653409|47.969507551153
PS176|2020-07-27 00:00:00|Волгоградская область,город Волжский, проспект имени Ленина, дом 97|ПН-ПТ 08:30-18:00, СБ 09:00-14:00, ВС выходной|НЕТ|90.37|48.76654999273202|44.56005001652989
PS181|2020-07-27 00:00:00|Ростовская область,город Азов,улица Кондаурова, дом 63|ПН-ПТ 08:00-17:00, СБ-ВС выходной|НЕТ|95.65|47.09554999465846|39.43055996644802
PS184|2020-07-27 00:00:00|Ростовская область,город Шахты, пер Красный Шахтер, дом 68|ПН-ПТ 08:00-17:30, СБ 09:00-13:30, ВС выходной|НЕТ|95.83|47.7084399935363|40.21834998401735
PS208|2020-07-27 00:00:00|г Москва,улица Гиляровского, дом 39 строение 3|ПН-ПТ 00:00-23:59, СБ 00:00-23:59, ВС 00:00-23:59|НЕТ|90.53|55.78350000818423|37.63204997295145
PS276|2020-07-27 00:00:00|г Москва,улица Михалковская, дом 24|ПН-ПТ 09:00-20:30, СБ 09:00-17:00, ВС выходной|НЕТ|100.0|55.83981998536728|37.52810004052151
PS282|2020-07-27 00:00:00|г Москва, Преображенское район , Преображенская пл, дом 7А строение 1|ПН 08:30-20:00, ВТ-ВС 09:00-21:00|НЕТ|88.28|55.79536314340203|37.71018379070605
PS289|2020-07-27 00:00:00|г Москва,улица Новослободская, дом 16|ПН-ВС 09:00-21:00|НЕТ|100.0|55.78166001279916|37.59941000379595
PS319|2020-07-27 00:00:00|г Москва,улица Митинская, дом 47|ПН-ПТ 09:00-20:00, СБ 09:00-17:00, ВС выходной|НЕТ|100.0|55.85105001733223|37.35247997443773
PS323|2020-07-27 00:00:00|г Москва, Щёлковское шоссе, дом 6|ПН-ПТ 00:00-23:59, СБ 00:00-23:59, ВС 00:00-23:59|НЕТ|100.0|55.80393001707455|37.7604899824413
PS326|2020-07-27 00:00:00|г Москва, район Митино, 3-й Митинский пер, дом 6 корпус 1|ПН-ПТ 00:00-23:59, СБ 00:00-23:59, ВС 00:00-23:59|НЕТ|87.14|55.84775002014254|37.35201997559145
PS337|2020-07-27 00:00:00|г Москва, район Аэропорт, Ленинградский проспект , дом 76 корпус 2|ПН-ПТ 08:30-20:00, СБ 09:00-17:00, ВС выходной|НЕТ|89.2|55.80561000192799|37.51530003618231
PS160|2020-07-28 00:00:00|Астраханская область,город Астрахань,улица Дзержинского, строение 59А|ПН-ПТ 00:00-23:59, СБ 00:00-23:59, ВС 00:00-23:59|НЕТ|86.9|46.34989999530367|47.99909996241288
PS199|2020-07-28 00:00:00|г Москва, Гагаринский район , Ленинский проспект , дом 75/9|ПН-ПТ 00:00-23:59, СБ 00:00-23:59, ВС 00:00-23:59|НЕТ|92.97|55.68696001343753|37.54501002726377
PS210|2020-07-28 00:00:00|г Москва,улица Бажова, дом 24 корпус 2|ПН-ПТ 00:00-23:59, СБ 00:00-23:59, ВС 00:00-23:59|НЕТ|90.67|55.83603999849225|37.66500996317018
PS217|2020-07-28 00:00:00|г Москва, поселение Рязановское, поселок Знамя Октября, мкр Родники, дом 8|ПН-ПТ 00:00-23:59, СБ 00:00-23:59, ВС 00:00-23:59|НЕТ|86.67|55.46725000509397|37.54502000172857
PS270|2020-07-28 00:00:00|г Москва, район Северное Тушино,улица Туристская, дом 19 корпус 1|ПН-ПТ 09:00-19:30, СБ 09:00-16:30, ВС выходной|НЕТ|95.71|55.85244979122682|37.42177959930213
PS285|2020-07-28 00:00:00|г Москва,город Зеленоград, район Савелки, Центральный проспект , дом 435А|ПН-ПТ 00:00-23:59, СБ 00:00-23:59, ВС 00:00-23:59|НЕТ|88.21|55.99564333478911|37.21257596718653
PS294|2020-07-28 00:00:00|г Москва, район Марьина роща,улица Сущёвский Вал, дом 71|ПН-ПТ 00:00-23:59, СБ 00:00-23:59, ВС 00:00-23:59|НЕТ|93.72|55.79335000170084|37.62580998131344
PS310|2020-07-28 00:00:00|Ярославская область, Ярославский район , село Туношна,улица Школьная, дом 3|ПН-СР 08:00-16:00, ЧТ 08:00-15:45, ПТ-ВС выходной|НЕТ|99.35|57.54278001261073|40.1230899897046
PS311|2020-07-28 00:00:00|Ярославская область,город Ярославль,улица 6-я Железнодорожная, дом 2|ПН-ПТ 08:30-18:30, СБ 08:30-14:00, ВС выходной|НЕТ|96.55|57.57313000390917|39.92302997034184
PS315|2020-07-28 00:00:00|г Москва, проезд Дежнёва, дом 27 корпус 1|ПН-ПТ 00:00-23:59, СБ 00:00-23:59, ВС 00:00-23:59|НЕТ|91.25|55.87048843184441|37.63351135161955
PS329|2020-07-28 00:00:00|г Москва,улица Гурьянова, дом 55|ПН-ПТ 08:30-19:30, СБ 09:00-16:30, ВС выходной|НЕТ|100.0|55.68012000326073|37.71701003318512
PS334|2020-07-28 00:00:00|г Москва,улица Гризодубовой, дом 4 корпус 1|ПН-ПТ 08:30-19:30, СБ 09:00-17:00, ВС выходной|НЕТ|92.0|55.78430350196843|37.52195928454925
PS342|2020-07-28 00:00:00|г Москва,улица Череповецкая, дом 20|ПН-ПТ 00:00-23:59, СБ 00:00-23:59, ВС 00:00-23:59|НЕТ|100.0|55.89766002069118|37.58100996612617
PS343|2020-07-28 00:00:00|г Москва, Бутырский район ,улица Яблочкова, дом 21А|ПН-ПТ 00:00-23:59, СБ 00:00-23:59, ВС 00:00-23:59|НЕТ|97.93|55.81951000533044|37.57836002743727
PS173|2020-07-29 00:00:00|Волгоградская область,город Волгоград,улицаимениНиколая Отрады, д.26А|ПН-ПТ 09:00-18:00, СБ-ВС выходной|НЕТ|77.44|48.70408000000003|44.45177000000007
PS178|2020-07-29 00:00:00|Ростовская область,город Ростов-на-Дону,улица Толмачева, дом 127/44А|ПН-ПТ 09:00-19:00, СБ 09:00-16:00, ВС выходной|НЕТ|94.39|47.21883999519926|39.63324000110535
PS180|2020-07-29 00:00:00|Ростовская область, Тацинский район , станица Тацинская,улица Ленина, дом 49|ПН-ПТ 08:00-16:30, СБ-ВС выходной|НЕТ|98.89|48.19260001098394|41.28131997831227
PS207|2020-07-29 00:00:00|г Москва, район Хамовники, Зубовский бульвар , дом 13 строение 1|ПН-ПТ 00:00-23:59, СБ 00:00-23:59, ВС 00:00-23:59|НЕТ|87.31|55.73582998744018|37.59232997782172
PS212|2020-07-29 00:00:00|г Москва,улица Академика Бакулева, дом 2|ПН-ПТ 00:00-23:59, СБ 00:00-23:59, ВС 00:00-23:59|НЕТ|100.0|55.64411998057929|37.48783002490543
PS269|2020-07-29 00:00:00|г Москва, район Кузьминки,улица Зеленодольская, дом 22/14|ПН-ПТ 08:30-19:30, СБ 09:00-16:30, ВС выходной|НЕТ|92.24|55.71258001295504|37.77693997033728
PS275|2020-07-29 00:00:00|г Москва,улица Академика Миллионщикова, дом 19|ПН-ПТ 09:30-19:30, СБ 10:00-17:00, ВС выходной|НЕТ|100.0|55.66835000909322|37.64864999691426
PS297|2020-07-29 00:00:00|г Москва,улица Ташкентская, дом 9|ПН-ПТ 09:00-19:30, СБ 10:00-16:30, ВС выходной|НЕТ|100.0|55.70839999975095|37.81937000240171
PS325|2020-07-29 00:00:00|г Москва, Неманский пр-д, дом 9|ПН-ПТ 00:00-23:59, СБ 00:00-23:59, ВС 00:00-23:59|НЕТ|97.28|55.81081998339425|37.39245997620395
PS328|2020-07-29 00:00:00|г Москва, поселение Московский,город Московский,улица Солнечная, дом 3|ПН-ПТ 10:00-20:00, СБ 10:00-16:30, ВС выходной|НЕТ|87.12|55.5914900105407|37.36602999147308
PS332|2020-07-29 00:00:00|г Москва, район Тропарево-Никулино,улица Никулинская, дом 25|ПН-ПТ 00:00-23:59, СБ 00:00-23:59, ВС 00:00-23:59|НЕТ|94.16|55.66963000952714|37.45314998433605
PS336|2020-07-29 00:00:00|г Москва,улица Измайловский Вал, дом 20|ПН 08:30-23:59, ВТ-ПТ 00:00-23:59, СБ 00:00-14:00, ВС выходной|НЕТ|100.0|55.78447000392921|37.7189299919265
PS172|2020-07-30 00:00:00|Волгоградская область,город Волгоград, проспект имениГероев Сталинграда, дом 1|ПН-ПТ 00:00-23:59, СБ 00:00-23:59, ВС 00:00-23:59|НЕТ|86.32|48.51648999309003|44.56674003254935
PS177|2020-07-30 00:00:00|Волгоградская область,город Волгоград, Центральный район ,улица Новороссийская, дом 14Б|ПН-ПТ 00:00-23:59, СБ 00:00-23:59, ВС 00:00-23:59|НЕТ|99.33|48.71612999528466|44.51151997061052
PS223|2020-07-30 00:00:00|Владимирская область,город Владимир, проспект Строителей, дом 22|ПН-ПТ 09:00-18:00, СБ-ВС выходной|НЕТ|96.36|56.1405799799322|40.36430004069783
PS224|2020-07-30 00:00:00|Кировская область,город Киров,улица Дерендяева, дом 25|ПН-ПТ 00:00-23:59, СБ 00:00-23:59, ВС 00:00-23:59|НЕТ|95.65|58.60398000041209|49.66113999935851
PS240|2020-07-30 00:00:00|Владимирская область,город Владимир,улица Верхняя Дуброва, дом 21|ПН-ПТ 00:00-23:59, СБ 00:00-23:59, ВС 00:00-23:59|НЕТ|96.43|56.11017001611654|40.34629998744759
PS262|2020-07-30 00:00:00|Владимирская область,город Владимир, проспект Ленина, дом 36|ПН-ПТ 00:00-23:59, СБ 00:00-23:59, ВС 00:00-23:59|НЕТ|96.08|56.11985999910155|40.36179997043769
PS201|2020-07-31 00:00:00|г Москва,улица Плющиха, дом 42|ПН-ПТ 00:00-23:59, СБ 00:00-23:59, ВС 00:00-23:59|НЕТ|100.0|55.7409400147111|37.57624996713187
PS229|2020-07-31 00:00:00|Владимирская область,город Владимир, Суздальский проспект , дом 6|ПН-ПТ 00:00-23:59, СБ 00:00-23:59, ВС 00:00-23:59|НЕТ|96.36|56.16427000433404|40.47016004122335
PS230|2020-07-31 00:00:00|Владимирская область,город Владимир,улица Мира, дом 90|ПН-ПТ 09:00-18:00, СБ-ВС выходной|НЕТ|95.65|56.14684000431879|40.43189003152395
PS399|2020-07-31 00:00:00|Владимирская область,город Ковров,улица Грибоедова, дом 28|ПН-ПТ 00:00-23:59, СБ 00:00-23:59, ВС 00:00-23:59|НЕТ|96.0|56.35242998430152|41.33022997590257
PS400|2020-07-31 00:00:00|Владимирская область,город Ковров,улица Строителей, дом 16|ПН-ПТ 00:00-23:59, СБ 00:00-23:59, ВС 00:00-23:59|НЕТ|96.0|56.33765000679421|41.30157996029666
PS403|2020-07-31 00:00:00|Владимирская область,город Владимир,улица Растопчина, дом 51Б|ПН-ПТ 09:00-18:00, СБ-ВС выходной|НЕТ|96.23|56.173490014008|40.46797999202644
PS407|2020-07-31 00:00:00|Владимирская область,город Ковров,улица Абельмана, дом 31|ПН-ПТ 00:00-23:59, СБ 00:00-23:59, ВС 00:00-23:59|НЕТ|95.92|56.37648998590953|41.30836997242102
PS213|2020-08-03 00:00:00|г Москва,улица Чертановская, дом 48 корпус 3|ПН-ПТ 00:00-23:59, СБ 00:00-23:59, ВС 00:00-23:59|НЕТ|92.22|55.6071399876881|37.5890499714711
PS232|2020-08-03 00:00:00|Респ. Татарстан,город Казань, улица Карбышева,дом , 36, корпус, 2|ПН-ПТ 00:00-23:59, СБ 00:00-23:59, ВС 00:00-23:59|НЕТ|87.12|55.76398999698645|49.17723001408262
PS247|2020-08-03 00:00:00|Республика Татарстан,город Казань,улица Гвардейская, дом 22|ПН-ПТ 08:30-18:00, СБ 08:30-14:30, ВС выходной|НЕТ|96.08|55.78821000912609|49.1707600230215
PS249|2020-08-03 00:00:00|Республика Татарстан,город Казань,улица Ильича, дом 19|ПН-ПТ 00:00-23:59, СБ 00:00-23:59, ВС 00:00-23:59|НЕТ|95.65|55.81851000237208|48.89891998325425
PS268|2020-08-03 00:00:00|г Москва, Чертаново Центральное район ,улица Днепропетровская, дом 3 корпус 5а|ПН-ПТ 00:00-23:59, СБ 00:00-23:59, ВС 00:00-23:59|НЕТ|94.54|55.62138000299288|37.60554999932904
PS221|2020-08-04 00:00:00|Республика Татарстан,город Казань,улица Серова, дом 11|ПН-ПТ 00:00-23:59, СБ 00:00-23:59, ВС 00:00-23:59|НЕТ|95.65|55.8293299916337|49.06316002321577
PS227|2020-08-04 00:00:00|Республика Татарстан,город Набережные Челны, проспект Хасана Туфана, дом 45А|ПН-ПТ 00:00-23:59, СБ 00:00-23:59, ВС 00:00-23:59|НЕТ|96.92|55.74414999026067|52.38750001992449
PS235|2020-08-04 00:00:00|Кировская область,город Киров,улица Сутырина, дом 12|ПН-ПТ 09:00-18:00, СБ-ВС выходной|НЕТ|95.45|58.64448998991608|49.61399003379699
PS236|2020-08-04 00:00:00|Республика Татарстан, Елабужский район ,город Елабуга,улица Габдуллы Тукая, дом 38|ПН-ВТ 08:30-17:15, СР выходной, ЧТ-ПТ 08:30-17:15, СБ-ВС выходной|НЕТ|99.28|55.75947998825436|52.08440000754055
PS253|2020-08-04 00:00:00|Республика Татарстан,город Казань, Кировский район ,улица Клары Цеткин, дом 9|ПН-ПТ 00:00-23:59, СБ 00:00-23:59, ВС 00:00-23:59|НЕТ|99.22|55.79875000091212|49.0617399611798
PS254|2020-08-04 00:00:00|Республика Татарстан,город Казань,улица Чистопольская, дом 5|ПН-ПТ 00:00-23:59, СБ 00:00-23:59, ВС 00:00-23:59|НЕТ|96.15|55.81959998506102|49.10240996121541
PS257|2020-08-04 00:00:00|Республика Татарстан,город Казань, Московский район ,улица Беломорская, дом 81|ПН-ПТ 00:00-23:59, СБ 00:00-23:59, ВС 00:00-23:59|НЕТ|99.24|55.86612000868942|49.01639000932519
PS219|2020-08-05 00:00:00|Респ. Татарстан, район . Нижнекамский,город Нижнекамск. , , улица Кайманова,дом , 16, ,|ПН-ПТ 00:00-23:59, СБ 00:00-23:59, ВС 00:00-23:59|НЕТ|96.88|55.65553001391493|51.84566999405885
PS222|2020-08-05 00:00:00|Республика Татарстан, Нижнекамский район ,город Нижнекамск,улица Тукая, дом 31|ПН-ПТ 00:00-23:59, СБ 00:00-23:59, ВС 00:00-23:59|НЕТ|99.24|55.62727998272854|51.80617002388749
PS226|2020-08-05 00:00:00|Республика Татарстан,город Набережные Челны, проспект Сююмбике, дом 16|ПН-ПТ 00:00-23:59, СБ 00:00-23:59, ВС 00:00-23:59|НЕТ|96.67|55.73664998902782|52.39351001213933
PS234|2020-08-05 00:00:00|Республика Татарстан, Нижнекамский район ,город Нижнекамск, проспект Химиков, дом 21|ПН-ПТ 00:00-23:59, СБ 00:00-23:59, ВС 00:00-23:59|НЕТ|99.3|55.623430006962|51.79108997424649
PS237|2020-08-05 00:00:00|Республика Татарстан, Нижнекамский район ,город Нижнекамск,улица Чулман, дом 17А|ПН-ПТ 00:00-23:59, СБ 00:00-23:59, ВС 00:00-23:59|НЕТ|99.26|55.65016999638181|51.8028900175369
PS239|2020-08-05 00:00:00|Республика Татарстан, Нижнекамский район ,город Нижнекамск, проспект Мира, дом 5А|ПН-ПТ 00:00-23:59, СБ 00:00-23:59, ВС 00:00-23:59|НЕТ|99.26|55.65180999955712|51.81573997801902
PS242|2020-08-05 00:00:00|Республика Татарстан,город Набережные Челны, проспект имени Мусы Джалиля, дом 25|ПН-ПТ 00:00-23:59, СБ 00:00-23:59, ВС 00:00-23:59|НЕТ|88.2|55.68246999554452|52.29464001594792
PS244|2020-08-05 00:00:00|Республика Татарстан,город Набережные Челны,улица Шамиля Усманова, дом 23А|ПН-ПТ 00:00-23:59, СБ 00:00-23:59, ВС 00:00-23:59|НЕТ|96.88|55.73861998773117|52.38655001501857
PS248|2020-08-05 00:00:00|Республика Татарстан,город Набережные Челны, Набережночелнинский проспект , дом 70/56|ПН-ПТ 00:00-23:59, СБ 00:00-23:59, ВС 00:00-23:59|НЕТ|96.16|55.71901999680279|52.37522002885828
PS255|2020-08-05 00:00:00|Республика Татарстан,город Набережные Челны, Московский проспект , дом 183А|ПН-ПТ 08:30-18:00, СБ 09:00-15:00, ВС выходной|НЕТ|96.88|55.75532998226365|52.45124003498407
PS256|2020-08-05 00:00:00|Республика Татарстан,город Набережные Челны, проспект имени Вахитова, дом 14А|ПН-ПТ 00:00-23:59, СБ 00:00-23:59, ВС 00:00-23:59|НЕТ|96.97|55.74624999228226|52.42104003784294
PS258|2020-08-05 00:00:00|Республика Татарстан,город Казань,улица Адоратского, дом 12|ПН-ПТ 00:00-23:59, СБ 00:00-23:59, ВС 00:00-23:59|НЕТ|96.08|55.83182000361003|49.14877001622168
PS259|2020-08-05 00:00:00|Республика Татарстан,город Набережные Челны,имени Габдуллы Тукая наб, дом 93/100|ПН-ПТ 00:00-23:59, СБ 00:00-23:59, ВС 00:00-23:59|НЕТ|92.35|55.69656999115674|52.31945003025209
PS260|2020-08-05 00:00:00|Респ. Татарстан,город Набережные Челны, проспект . Автозаводский,дом , 28/08|ПН-ПТ 00:00-23:59, СБ 00:00-23:59, ВС 00:00-23:59|НЕТ|92.51|55.75914999272635|52.42291004044139
PS404|2020-08-05 00:00:00|Вологодская область,город Вологда,улица Зосимовская, дом 40|ПН-ПТ 00:00-23:59, СБ 00:00-23:59, ВС 00:00-23:59|НЕТ|96.08|59.21275000051259|39.89590998734158
PS179|2020-08-06 00:00:00|Ростовская область, Морозовский район ,город Морозовск,улица Подтелкова, дом 27|ПН-ПТ 00:00-23:59, СБ 00:00-23:59, ВС 00:00-23:59|НЕТ|99.25|48.35525000391306|41.82531999509098
PS182|2020-08-06 00:00:00|Ростовская область,город Ростов-на-Дону,улица Вятская, дом 41/1|ПН-ПТ 08:00-18:30, СБ 08:30-15:00, ВС выходной|НЕТ|95.38|47.28452000174883|39.75322996254695
PS252|2020-08-06 00:00:00|Республика Татарстан, Нижнекамский район ,город Нижнекамск,улица Студенческая, дом 14А|ПН-ПТ 09:30-18:30, СБ-ВС выходной|НЕТ|99.32|55.63300000300305|51.79649998983206
PS322|2020-08-06 00:00:00|г Москва, поселение Воскресенское, поселок подсобного хозяйства Воскресенское, дом 27А|ПН выходной, ВТ-ПТ 09:00-18:30, СБ 09:00-13:45, ВС выходной|НЕТ|84.86|55.53022999108313|37.44355999745594
PS355|2020-08-06 00:00:00|Республика Татарстан, Альметьевский район ,город Альметьевск,улица Ленина, дом 201|ПН-ПТ 00:00-23:59, СБ 00:00-23:59, ВС 00:00-23:59|НЕТ|99.29|54.90630999435965|52.25221995834829
PS370|2020-08-06 00:00:00|Республика Татарстан, Альметьевский район ,город Альметьевск,площадь Ленина, дом 122|ПН-ПТ 00:00-23:59, СБ 00:00-23:59, ВС 00:00-23:59|НЕТ|97.42|54.90336999991135|52.26162001130245
PS402|2020-08-07 00:00:00|Вологодская область,город Череповец, проспект Победы, дом 208|ПН-ПТ 09:00-19:00, СБ 09:00-15:30, ВС выходной|НЕТ|96.15|59.11956000100801|38.00443999376355
PS421|2020-08-07 00:00:00|обл. Волгоградская,город Волгоград, проспект .имени Героев Сталинграда,дом , 50, А|ПН-ПТ 00:00-23:59, СБ 00:00-23:59, ВС 00:00-23:59|НЕТ|80.9|48.51305001811733|44.5435799958853
PS484|2020-08-07 00:00:00|г Москва,улица Вяземская, дом 4|ПН-ПТ 08:30-20:00, СБ 09:00-15:00, ВС выходной|НЕТ|100.0|55.71440999196582|37.40271003795914
PS485|2020-08-07 00:00:00|г Москва, район Филевский парк,улица Кастанаевская, дом 24|ПН-ПТ 08:30-19:30, СБ 09:30-16:00, ВС выходной|НЕТ|94.0|55.73864999494452|37.49030000413316
PS204|2020-08-10 00:00:00|г Москва,улица Алтайская, дом 4|ПН-ПТ 00:00-23:59, СБ 00:00-23:59, ВС 00:00-23:59|НЕТ|100.0|55.81946998174277|37.80249999733758
PS228|2020-08-10 00:00:00|Кировская область, Советский район ,город Советск,улица Ленина, дом 29А|ПН-ПТ 08:00-17:30, СБ 08:00-12:30, ВС выходной|НЕТ|99.15|57.59031001366225|48.96239999167733
PS427|2020-08-10 00:00:00|Самарская область,город Самара, Промышленный район ,улица Ново-Садовая, дом 347А|ПН-ПТ 09:00-18:30, СБ 09:00-14:30, ВС выходной|НЕТ|99.25|53.25224999024172|50.20917003518397
PS359|2020-08-11 00:00:00|Чувашская республика - Чувашия,город Новочебоксарск,улица Винокурова, дом 20|ПН-ПТ 00:00-23:59, СБ 00:00-23:59, ВС 00:00-23:59|НЕТ|92.62|56.11958000162596|47.49259001924312
PS369|2020-08-11 00:00:00|Чувашская республика - Чувашия,город Новочебоксарск,улица 10 Пятилетки, дом 31|ПН-ПТ 08:00-18:30, СБ 08:30-15:30, ВС выходной|НЕТ|92.73|56.10968998452168|47.44769000795097
PS467|2020-08-11 00:00:00|г Москва, район Кунцево,улица Ивана Франко, дом 36|ПН-ПТ 00:00-23:59, СБ 00:00-23:59, ВС 00:00-23:59|НЕТ|93.18|55.72822001563767|37.41759001157135
PS487|2020-08-11 00:00:00|г Москва, район Северное Измайлово, Щёлковское шоссе, дом 34 строение 1|ПН-ПТ 08:30-19:30, СБ 09:00-16:30, ВС выходной|НЕТ|88.61|55.80940997964208|37.78550996342
PS579|2020-08-11 00:00:00|Оренбургская область,город Оренбург,улица Джангильдина, дом 15|ПН-ПТ 00:00-23:59, СБ 00:00-23:59, ВС 00:00-23:59|НЕТ|96.3|51.83360998604149|55.16229998095068
PS350|2020-08-12 00:00:00|Республика Татарстан, Нурлатский район ,город Нурлат,улица Советская, дом 94|ПН-ПТ 00:00-23:59, СБ 00:00-23:59, ВС 00:00-23:59|НЕТ|99.22|54.42786999718652|50.8069699680465
PS186|2020-08-13 00:00:00|обл. Ростовская,город Таганрог, улица Дзержинского,дом , 165, строение, 8|ПН-ПТ 00:00-23:59, СБ 00:00-23:59, ВС 00:00-23:59|НЕТ|85.67|47.25184000900566|38.91683999398577
PS364|2020-08-13 00:00:00|Чувашская республика - Чувашия,город Чебоксары,улица К.Маркса, дом 22|ПН-ПТ 00:00-23:59, СБ 00:00-23:59, ВС 00:00-23:59|НЕТ|91.58|56.14321001160107|47.25045997055736
PS409|2020-08-13 00:00:00|Владимирская область, Кольчугинский район ,город Кольчугино, мкр Белая Речка,улица Школьная, дом 12|ПН-ЧТ 08:30-17:15, ПТ 08:30-16:15, СБ-ВС выходной|НЕТ|97.83|56.28378001799982|39.40586998099735
PS185|2020-08-14 00:00:00|Ростовская область,город Новочеркасск,улица Московская, дом 67|ПН-ПТ 09:00-18:00, СБ 09:00-14:00, ВС выходной|НЕТ|96.3|47.42039999804479|40.09292997424163
PS22|2020-08-14 00:00:00|г Москва, Кутузовский проспект , дом 32 корпус 1|ПН 00:00 - 23:59; ВТ 00:00 - 23:59; СР 00:00 - 23:59; ЧТ 00:00 - 23:59; ПТ 00:00 - 23:59; СБ 00:00 - 23:59; ВС 00:00 - 23:59|НЕТ|92.63|55.74040998506379|37.53209996853587
PS414|2020-08-14 00:00:00|Волгоградская область,город Волгоград,улицаименимаршала Еременко, дом 35|ПН-ПТ 00:00-23:59, СБ 00:00-23:59, ВС 00:00-23:59|НЕТ|85.08|48.78351001943625|44.56239996690414
PS416|2020-08-14 00:00:00|Волгоградская область,город Волгоград, Краснооктябрьский район ,улицаимени маршала Еременко, дом 53|ПН-ПТ 00:00-23:59, СБ 00:00-23:59, ВС 00:00-23:59|НЕТ|97.14|48.78888001143414|44.57443000961766
PS420|2020-08-14 00:00:00|Волгоградская область,город Волгоград, Краснооктябрьский район , проспект Металлургов, дом 15|ПН-ПТ 00:00-23:59, СБ 00:00-23:59, ВС 00:00-23:59|НЕТ|99.38|48.76774998790015|44.55355001825538
PS456|2020-08-14 00:00:00|Пермский край,город Пермь,улица Ленина, дом 72|ПН-ПТ 00:00-23:59, СБ 00:00-23:59, ВС 00:00-23:59|НЕТ|94.74|58.00800368479995|56.22084667894758
PS479|2020-08-14 00:00:00|г Москва, Новотушинский пр-д, дом 8 корпус 1|ПН-ПТ 00:00-23:59, СБ 00:00-23:59, ВС 00:00-23:59|НЕТ|89.68|55.83930001400378|37.38236003433465
PS480|2020-08-14 00:00:00|г Москва,улица Домодедовская, дом 28|ПН-ПТ 08:30-19:30, СБ 08:30-16:30, ВС выходной|НЕТ|100.0|55.60473999735188|37.7123399720119
PS534|2020-08-14 00:00:00|Нижегородская область,город Дзержинск, проспект Циолковского, дом 71|ПН-ПТ 09:00-18:00, СБ 09:00-13:00, ВС выходной|НЕТ|96.61|56.22601001347695|43.40571995983166
PS454|2020-08-16 00:00:00|Пермский край,город Пермь,улица Ленина, дом 75|ПН-ВС 06:00-23:00|НЕТ|94.74|58.00540000573051|56.20296003120157
PS220|2020-08-17 00:00:00|Кировская область,город Киров,улица Лепсе, дом 4/2|ПН-ПТ 08:30-18:00, СБ 09:00-12:30, ВС выходной|НЕТ|94.15|58.62377000908543|49.64616002964144
PS356|2020-08-17 00:00:00|Удмуртская Респ,город Ижевск,улица Кирова, дом 109|ПН-ПТ 09:00-19:00, СБ 09:30-14:30, ВС выходной|НЕТ|95.24|56.85999001230113|53.20050003621751
PS372|2020-08-17 00:00:00|Чувашская республика - Чувашия,город Чебоксары,улица 50 лет Октября, дом 17 корпус а|ПН-ПТ 00:00-23:59, СБ 00:00-23:59, ВС 00:00-23:59|НЕТ|88.99|56.12668999290406|47.27683002468052
PS382|2020-08-17 00:00:00|г Санкт-Петербург, Центральный район ,улица Думская, дом 1-3|ПН-ПТ 00:00-23:59, СБ 00:00-23:59, ВС 00:00-23:59|НЕТ|99.17|59.9342200113154|30.32880997766219
PS383|2020-08-17 00:00:00|г Санкт-Петербург,улица Коллонтай, дом 24 корпус 2|ПН-ВС 06:00-23:59|НЕТ|93.17|59.92170200447124|30.47792707576577
PS386|2020-08-17 00:00:00|г Санкт-Петербург, Московский район , Дунайский проспект , дом 27 корпус 1|ПН-ВС 09:00-22:00|НЕТ|95.25|59.83239826596888|30.36573340017323
PS396|2020-08-17 00:00:00|г Санкт-Петербург, Пискарёвский проспект , дом 35|ПН-ПТ 09:30-18:30, СБ 11:00-16:00, ВС выходной|НЕТ|100.0|59.97699998783739|30.419200002411
PS415|2020-08-17 00:00:00|Волгоградская область,город Волжский,улица Энгельса, дом 39|ПН-ПТ 08:30-17:30, СБ-ВС выходной|НЕТ|96.08|48.78991999607064|44.76720003633164
PS446|2020-08-17 00:00:00|Пермский край,город Пермь,улица Гашкова, дом 19|ПН-ПТ 00:00-23:59, СБ 00:00-23:59, ВС 00:00-23:59|НЕТ|94.87|58.06279999113772|56.35311998257095
PS447|2020-08-17 00:00:00|край. Пермский,город Пермь, улица Кабельщиков,дом , 85, корпус, А|ПН-ПТ 00:00-23:59, СБ 00:00-23:59, ВС 00:00-23:59|НЕТ|85.36|58.11113000293781|56.28861998035043
PS470|2020-08-17 00:00:00|г Москва,улица Мурановская, дом 3|ПН-ПТ 08:30-19:30, СБ 10:00-16:30, ВС выходной|НЕТ|100.0|55.89056000387788|37.59501998200781
PS515|2020-08-17 00:00:00|г Санкт-Петербург, Центральный район , Лиговский проспект , дом 105|ПН-ПТ 10:00-20:00, СБ 10:00-18:30, ВС выходной|НЕТ|100.0|59.92173998612992|30.35404000913448
PS526|2020-08-17 00:00:00|г Санкт-Петербург, Вознесенский проспект , дом 37/6|ПН-ПТ 09:00-18:00, СБ 10:00-17:00, ВС выходной|НЕТ|99.02|59.92401001505741|30.30768003794722
PS241|2020-08-18 00:00:00|Кировская область,город Киров,улица Карла Маркса, дом 62|ПН-ПТ 00:00-23:59, СБ 00:00-23:59, ВС 00:00-23:59|НЕТ|95.74|58.60470998035964|49.66950002576667
PS371|2020-08-18 00:00:00|Удмуртская Респ,город Ижевск,улица 10 лет Октября, дом 23|ПН-ПТ 00:00-23:59, СБ 00:00-23:59, ВС 00:00-23:59|НЕТ|95.74|56.87250000279047|53.21938002166308
PS375|2020-08-18 00:00:00|г Санкт-Петербург, проспект Стачек, дом 73|ПН-ПТ 09:30-18:30, СБ-ВС выходной|НЕТ|100.0|59.86839001060855|30.25963002362272
PS377|2020-08-18 00:00:00|г Санкт-Петербург, Петергофское шоссе, дом 17 корпус 1|ПН-ПТ 09:30-19:00, СБ 10:00-17:00, ВС выходной|НЕТ|93.64|59.84748998649766|30.18769996715136
PS379|2020-08-18 00:00:00|г Санкт-Петербург, Кировский район , проспект Ветеранов, дом 43|ПН-ПТ 10:00-18:30, СБ 10:00-17:00, ВС выходной|НЕТ|100.0|59.8421999997656|30.24191998422236
PS380|2020-08-18 00:00:00|г Санкт-Петербург, Красносельский район , Ленинский проспект , дом 71 корпус 1|ПН-ВС 06:00-23:59|НЕТ|95.56|59.85964999061994|30.18476001461258
PS387|2020-08-18 00:00:00|г Санкт-Петербург, проспект Просвещения, дом 67|ПН-ПТ 00:00-23:59, СБ 00:00-23:59, ВС 00:00-23:59|НЕТ|100.0|60.04047999626047|30.39321995824261
PS413|2020-08-18 00:00:00|Волгоградская область,город Волгоград, Красноармейский район ,улица Лазоревая, дом 221|ПН выходной, ВТ-ПТ 09:00-18:00, СБ 09:00-14:00, ВС выходной|НЕТ|99.32|48.52945000796089|44.47710002049669
PS522|2020-08-18 00:00:00|г Санкт-Петербург, Московский проспект , дом 193|ПН-ПТ 10:00-20:00, СБ 10:00-18:00, ВС выходной|НЕТ|100.0|59.85122999169457|30.32049001675122
PS533|2020-08-18 00:00:00|Нижегородская область, Кстовский район , деревня Афонино,улица Магистральная, дом 73а|ПН-ВТ 08:00-16:00, СР 08:00-12:45, ЧТ-ПТ 08:00-16:00, СБ-ВС выходной|НЕТ|99.03|56.26717001957221|44.09449002896179
PS183|2020-08-19 00:00:00|Ростовская область,город Новошахтинск,улица Харьковская, дом 131|ПН-ПТ 08:00-17:00, СБ-ВС выходной|НЕТ|96.43|47.77375999734446|39.92827997539578
PS243|2020-08-19 00:00:00|Кировская область,город Киров,улица Комсомольская, дом 69А|ПН-ПТ 00:00-23:59, СБ 00:00-23:59, ВС 00:00-23:59|НЕТ|96.0|58.5236200124601|49.46474002183635
PS265|2020-08-19 00:00:00|Кировская область,город Кирово-Чепецк,улица Луначарского, дом 9|ПН-ПТ 00:00-23:59, СБ 00:00-23:59, ВС 00:00-23:59|НЕТ|96.3|58.54673998362699|50.05611002913494
PS266|2020-08-19 00:00:00|Кировская область,город Кирово-Чепецк,улица 60 лет Октября, дом 17А|ПН-ПТ 09:00-17:15, СБ 10:00-13:45, ВС выходной|НЕТ|96.43|58.53304998880859|50.0332799879989
PS433|2020-08-19 00:00:00|Пермский край,город Пермь,улица Космонавта Леонова, дом 60|ПН-ПТ 00:00-23:59, СБ 00:00-23:59, ВС 00:00-23:59|НЕТ|95.92|57.96466001680338|56.1765199881869
PS436|2020-08-19 00:00:00|Пермский край,город Пермь, Индустриальный район ,улица Мира, дом 104|ПН-ПТ 00:00-23:59, СБ 00:00-23:59, ВС 00:00-23:59|НЕТ|99.11|57.97359998709223|56.16929000996487
PS517|2020-08-19 00:00:00|г Санкт-Петербург,улица Ярослава Гашека, дом 9 корпус 1|ПН-ПТ 09:30-19:00, СБ 10:00-17:00, ВС выходной|НЕТ|93.78|59.83189952661343|30.388205980402
PS536|2020-08-19 00:00:00|Нижегородская область, Кстовский район ,город Кстово,площадь Мира, дом 3|ПН-ПТ 00:00-23:59, СБ 00:00-23:59, ВС 00:00-23:59|НЕТ|99.17|56.14646001073834|44.20009002285082
PS576|2020-08-19 00:00:00|Оренбургская область,город Оренбург, проспект Дзержинского, дом 27/2|ПН-ПТ 00:00-23:59, СБ 00:00-23:59, ВС 00:00-23:59|НЕТ|95.86|51.83694220890689|55.13303965968369
PS596|2020-08-19 00:00:00|Оренбургская область,город Оренбург, Ленинский район ,улица Алтайская, дом 2/1|ПН-ПТ 00:00-23:59, СБ 00:00-23:59, ВС 00:00-23:59|НЕТ|99.08|51.77611000452941|55.16566003447662
PS610|2020-08-19 00:00:00|Краснодарский край, Лабинский район ,город Лабинск,улица Пионерская, дом 34|ПН-ПТ 08:00-16:45, СБ-ВС выходной|НЕТ|99.21|44.61978000338178|40.74147998389856
PS612|2020-08-19 00:00:00|Краснодарский край, Тихорецкий район ,город Тихорецк,улица Энгельса, дом 91|ПН-ПТ 08:00-17:00, СБ-ВС выходной|НЕТ|99.21|45.85250000741914|40.12823002418887
﻿PS309|2020-08-20 00:00:00|обл. Ярославская, . ,город Ярославль. , , проспект . Московский,дом , 117, ,|ПН 09:00 - 19:00; ВТ 09:00 - 19:00; СР 09:00 - 19:00; ЧТ 09:00 - 19:00; ПТ 09:00 - 19:00; СБ 09:00 - 15:30; ВС  - |НЕТ|91.24|57.59696000609406|39.87193003290889
PS233|2020-08-20 00:00:00|Республика Татарстан,город Набережные Челны, проспект Сююмбике, дом 67А|ПН-ПТ 00:00-23:59, СБ 00:00-23:59, ВС 00:00-23:59|НЕТ|96.72|55.7546000023161|52.41114997882914
PS309|2020-08-20 00:00:00|обл. Ярославская,город Ярославль, проспект . Московский, д. 117|ПН-ПТ 09:00-19:00, СБ 09:00-15:30, ВС выходной|НЕТ|92.55|57.59696000609406|39.87193003290889
PS363|2020-08-20 00:00:00|Респ. Удмуртская,город Ижевск, улица Труда,дом , 50, строение, А|ПН-ПТ 00:00-23:59, СБ 00:00-23:59, ВС 00:00-23:59|НЕТ|83.49|56.86199001821782|53.27951003484404
PS374|2020-08-20 00:00:00|г Санкт-Петербург, проспект Средний В.О., дом 35|ПН-ПТ 10:00-19:30, СБ 10:00-16:30, ВС 11:00-16:00|НЕТ|98.37|59.94287998412869|30.27670002089658
PS388|2020-08-20 00:00:00|г. Санкт-Петербург,город САНКТ-ПЕТЕРБУРГ, проспект . Энгельса,дом , 124|ПН-ПТ 00:00-23:59, СБ 00:00-23:59, ВС 00:00-23:59|НЕТ|93.34|60.04185639356336|30.32643233119875
PS394|2020-08-20 00:00:00|г Санкт-Петербург, проспект Малый В.О., дом 52|ПН-ПТ 00:00-23:59, СБ 00:00-23:59, ВС 00:00-23:59|НЕТ|97.92|59.94277001355903|30.2603500291055
PS397|2020-08-20 00:00:00|г Санкт-Петербург, проспект Сизова, дом 30|ПН-ВС 06:00-23:59|НЕТ|100.0|60.01350307901487|30.2753439545201
PS417|2020-08-20 00:00:00|Волгоградская область,город Волжский,улица Мира, дом 71|ПН-ПТ 00:00-23:59, СБ 00:00-23:59, ВС 00:00-23:59|НЕТ|95.74|48.77125999367388|44.80513996668398
PS432|2020-08-20 00:00:00|Пермский край,город Пермь, Индустриальный район , шоссе Космонавтов, дом 349|ПН-ПТ 00:00-23:59, СБ 00:00-23:59, ВС 00:00-23:59|НЕТ|99.21|57.95811999494123|56.13023000589118
PS489|2020-08-20 00:00:00|г Санкт-Петербург, проспект КИМа, дом 4|ПН-ПТ 00:00-23:59, СБ 00:00-23:59, ВС 00:00-23:59|НЕТ|100.0|59.94965997987876|30.2449000022583
PS504|2020-08-20 00:00:00|г Санкт-Петербург, Красногвардейский район , Среднеохтинский проспект , дом 10|ПН-ПТ 00:00-23:59, СБ 00:00-23:59, ВС 00:00-23:59|НЕТ|100.0|59.94855998081553|30.41408997514009
PS508|2020-08-20 00:00:00|г Санкт-Петербург, Московский район , проспект Космонавтов, дом 63 корпус 1|ПН-ПТ 00:00-23:59, СБ 00:00-23:59, ВС 00:00-23:59|НЕТ|95.41|59.83768194804009|30.35872246632114
PS510|2020-08-20 00:00:00|г Санкт-Петербург, проспект Славы, дом 43/49|ПН-ПТ 00:00-23:59, СБ 00:00-23:59, ВС 00:00-23:59|НЕТ|97.71|59.85793999855309|30.38996995910534
PS514|2020-08-20 00:00:00|г Санкт-Петербург, Ленинский проспект , дом 117 корпус 1|ПН-ПТ 00:00-23:59, СБ 00:00-23:59, ВС 00:00-23:59|НЕТ|93.78|59.85177774876044|30.25446039114297
PS516|2020-08-20 00:00:00|г Санкт-Петербург, проспект Энгельса, дом 55|ПН-ПТ 09:30-19:00, СБ 09:30-17:30, ВС выходной|НЕТ|100.0|60.01600999385863|30.32318002093731
PS583|2020-08-20 00:00:00|Оренбургская область,город Бузулук, мкр 2-й, дом 34|ПН-ПТ 00:00-23:59, СБ 00:00-23:59, ВС 00:00-23:59|НЕТ|95.12|52.77426001745008|52.24743003595967
PS584|2020-08-20 00:00:00|Оренбургская область,город Оренбург,улица Брестская, дом 5|ПН-ПТ 00:00-23:59, СБ 00:00-23:59, ВС 00:00-23:59|НЕТ|96.0|51.82744999966931|55.14771999565312
PS587|2020-08-20 00:00:00|Самарская область,город Самара, Октябрьский район ,улица Советской Армии, дом 239|ПН-ПТ 00:00-23:59, СБ 00:00-23:59, ВС 00:00-23:59|НЕТ|97.69|53.2339100089082|50.18755998005511
PS589|2020-08-20 00:00:00|Оренбургская область,город Оренбург, Шарлыкское шоссе, дом 1Б|ПН-ПТ 00:00-23:59, СБ 00:00-23:59, ВС 00:00-23:59|НЕТ|96.15|51.84130997948409|55.11204996849972
PS592|2020-08-20 00:00:00|Оренбургская область,город Оренбург, проспект Дзержинского, дом 26|ПН-ПТ 00:00-23:59, СБ 00:00-23:59, ВС 00:00-23:59|НЕТ|96.49|51.83544000696179|55.12894998077721
PS595|2020-08-20 00:00:00|Самарская область,город Самара, Советский район ,улица Аэродромная, дом 50|ПН-ПТ 08:30-18:00, СБ 09:00-16:00, ВС выходной|НЕТ|99.19|53.19224000591424|50.19440003214143
PS611|2020-08-20 00:00:00|Краснодарский край, Тихорецкий район ,город Тихорецк,улица Октябрьская, дом 46|ПН-ПТ 00:00-23:59, СБ 00:00-23:59, ВС 00:00-23:59|НЕТ|99.24|45.85596998960523|40.12771998538065
PS615|2020-08-20 00:00:00|Ставропольский край,город Ставрополь,улица Ленина, дом 381|ПН-ПТ 00:00-23:59, СБ 00:00-23:59, ВС 00:00-23:59|НЕТ|96.0|45.03631998088039|41.93357001148797
PS376|2020-08-21 00:00:00|г Санкт-Петербург, Комендантский проспект , дом 30 корпус 1|ПН-ПТ 00:00-23:59, СБ 00:00-23:59, ВС 00:00-23:59|НЕТ|94.17|60.01512138953387|30.25006070900369
PS378|2020-08-21 00:00:00|г Санкт-Петербург, поселок Парголово, 4-й Верхний пер, дом 19|ПН-ВС 06:00-23:59|НЕТ|92.5|60.07237821934569|30.34325257190702
PS391|2020-08-21 00:00:00|г. Санкт-Петербург,город САНКТ-ПЕТЕРБУРГ, проспект . Богатырский,дом , 10|ПН-ПТ 10:00-18:30, СБ 11:00-15:45, ВС выходной|НЕТ|93.54|59.99839001800791|30.28058000387651
PS431|2020-08-21 00:00:00|Самарская область,город Отрадный,улица Сабирзянова, дом 7|ПН-ПТ 00:00-23:59, СБ 00:00-23:59, ВС 00:00-23:59|НЕТ|95.92|53.37850001797941|51.35860003128582
PS438|2020-08-21 00:00:00|Пермский край,город Пермь, Дзержинский район , Парковый проспект , дом 40 корпус а|ПН-ПТ 00:00-23:59, СБ 00:00-23:59, ВС 00:00-23:59|НЕТ|98.18|57.99785998091002|56.15930003866521
PS463|2020-08-21 00:00:00|Пермский край,город Краснокамск,улица Комарова, дом 1|ПН-ВС 06:00-23:00|НЕТ|95.56|58.07663998011344|55.73071002761401
PS464|2020-08-21 00:00:00|Пермский край,город Краснокамск, Банковский пер, дом 4|ПН-ПТ 00:00-23:59, СБ 00:00-23:59, ВС 00:00-23:59|НЕТ|95.56|58.0789999887715|55.75383997324568
PS465|2020-08-21 00:00:00|Пермский край, Нытвенский район ,город Нытва,улица Карла Маркса, дом 77|ПН-ПТ 08:30-17:30, СБ 09:00-13:00, ВС выходной|НЕТ|99.14|57.94016998165296|55.32661000980372
PS475|2020-08-21 00:00:00|г Москва, поселение Кленовское, Троицкий округ, село Кленово,улица Мичурина, дом 5|ПН выходной, ВТ-ПТ 09:00-18:30, СБ 09:00-13:45, ВС выходной|НЕТ|78.51|55.3256699793626|37.34880995813236
PS496|2020-08-21 00:00:00|Ленинградская область, Всеволожский район ,город Всеволожск, Колтушское шоссе, дом 44 корпус 1|ПН-ВС 06:00-23:59|НЕТ|98.48|60.03218665871491|30.63751347177546
PS503|2020-08-21 00:00:00|г Санкт-Петербург, Московский район ,улица Бассейная, дом 41|ПН-ПТ 00:00-23:59, СБ 00:00-23:59, ВС 00:00-23:59|НЕТ|100.0|59.86455998377156|30.32278003651777
PS506|2020-08-21 00:00:00|г Санкт-Петербург,город Колпино, Колпинский район ,улица Ижорского Батальона, дом 7|ПН-ПТ 09:30-19:00, СБ 10:00-16:30, ВС выходной|НЕТ|99.28|59.73583000234134|30.61427999782109
PS509|2020-08-21 00:00:00|Ленинградская область, Всеволожский район ,город Всеволожск, Октябрьский проспект , дом 83|ПН-ПТ 00:00-23:59, СБ 00:00-23:59, ВС 00:00-23:59|НЕТ|99.34|60.01971999184215|30.64747996192773
PS513|2020-08-21 00:00:00|г Санкт-Петербург, Балканская пл, дом 5|ПН-ПТ 10:00-19:00, СБ 10:00-18:00, ВС 11:00-15:30|НЕТ|100.0|59.83077001750038|30.37738000525971
PS521|2020-08-21 00:00:00|г Санкт-Петербург,город Пушкин, Пушкинский район , Петербургское шоссе, дом 13/1|ПН-ВС 06:00-23:59|НЕТ|99.08|59.73670000198143|30.39549002907961
PS564|2020-08-21 00:00:00|Нижегородская область,город Нижний Новгород, Нижегородский район ,улица Октябрьская, дом 35|ПН-ПТ 09:00-18:00, СБ-ВС выходной|НЕТ|99.36|56.32211000021644|44.01072003134095
PS565|2020-08-21 00:00:00|Удмуртская Респ,город Глазов,улица 70 лет Октября, дом 3|ПН-ВТ 07:45-18:00, СР выходной, ЧТ-ПТ 07:45-18:00, СБ-ВС выходной|НЕТ|95.65|58.12969000922968|52.60379000222486
PS566|2020-08-21 00:00:00|Удмуртская Респ,город Глазов,улица Мира, дом 24|ПН-ПТ 00:00-23:59, СБ 00:00-23:59, ВС 00:00-23:59|НЕТ|94.87|58.14459001559047|52.64087003313045
PS593|2020-08-21 00:00:00|Оренбургская область,город Оренбург, Ленинский район ,улица Беляевская, дом 29|ПН-ПТ 00:00-23:59, СБ 00:00-23:59, ВС 00:00-23:59|НЕТ|99.24|51.72007999928672|55.1274699881335
PS636|2020-08-21 00:00:00|г Москва, район Измайлово, Измайловский проспект , дом 61|ПН-ПТ 08:30-19:30, СБ 09:00-16:30, ВС выходной|НЕТ|92.72|55.78890167688795|37.78312991999791
PS671|2020-08-21 00:00:00|Рязанская область,город Рязань,улица Интернациональная, дом 8/29|ПН-ПТ 00:00-23:59, СБ 00:00-23:59, ВС 00:00-23:59|НЕТ|94.91|54.67379000721209|39.65490998684191
PS679|2020-08-21 00:00:00|Рязанская область,город Рязань,улица Крупской, дом 19|ПН-ПТ 09:00-18:30, СБ 10:00-14:00, ВС выходной|НЕТ|95.56|54.63837001223041|39.65699003993393
PS392|2020-08-24 00:00:00|г Санкт-Петербург, Приморский район , проспект Испытателей, дом 31 корпус 1|ПН-ВС 06:00-23:59|НЕТ|95.41|60.0075355248111|30.26856829192095
PS442|2020-08-24 00:00:00|Пермский край,город Пермь,улица Тургенева, дом 25|ПН-ПТ 00:00-23:59, СБ 00:00-23:59, ВС 00:00-23:59|НЕТ|95.12|58.0169400004749|56.29363001151646
PS451|2020-08-24 00:00:00|Пермский край,город Пермь,улица Куйбышева, дом 97|ПН-ПТ 10:00-19:00, СБ-ВС выходной|НЕТ|95.12|57.98974998667359|56.24777999531841
PS462|2020-08-24 00:00:00|Пермский край,город Краснокамск,улица Большевистская, дом 46|ПН-ПТ 09:00-19:00, СБ 10:00-15:00, ВС выходной|НЕТ|96.15|58.08293001171339|55.74910000699995
PS507|2020-08-24 00:00:00|г Санкт-Петербург,город Петергоф,улица Чичеринская, дом 13 корпус 1|ПН-ПТ 09:30-18:30, СБ 10:00-18:00, ВС выходной|НЕТ|91.43|59.87477635286614|29.85670244007953
PS511|2020-08-24 00:00:00|г. Санкт-Петербург,город САНКТ-ПЕТЕРБУРГ, улица Савушкина,дом , 128|ПН-ВС 06:00-23:59|НЕТ|93.13|59.98858000616943|30.20055001145255
PS572|2020-08-24 00:00:00|Самарская область,город Тольятти, Центральный район ,улица Новозаводская, дом 6|ПН-ЧТ 08:30-17:15, ПТ 08:30-16:00, СБ-ВС выходной|НЕТ|99.25|53.55745000464722|49.4578500136071
PS622|2020-08-24 00:00:00|Ставропольский край,город Ставрополь,улица Доваторцев, дом 13|ПН-ПТ 00:00-23:59, СБ 00:00-23:59, ВС 00:00-23:59|НЕТ|96.23|45.02444001614322|41.9338799742674
PS450|2020-08-25 00:00:00|Пермский край,город Пермь, Индустриальный район ,улица Карпинского, дом 107|ПН-ПТ 10:00-19:00, СБ-ВС выходной|НЕТ|99.21|57.96466001680338|56.20017003091061
PS519|2020-08-25 00:00:00|г Санкт-Петербург,город Колпино, проспект Ленина, дом 37|ПН-ПТ 00:00-23:59, СБ 00:00-23:59, ВС 00:00-23:59|НЕТ|89.57|59.8266799840269|30.08178003601813
PS645|2020-08-25 00:00:00|г Москва, район Соколиная Гора, проспект Будённого, дом 30/8|ПН-ПТ 08:30-20:00, СБ 08:30-17:30, ВС выходной|НЕТ|93.18|55.76226998854534|37.73464999987496
PS649|2020-08-25 00:00:00|г Москва, район Метрогородок, Открытое шоссе, дом 17 корпус 13|ПН-ПТ 08:30-19:30, СБ 09:00-17:00, ВС выходной|НЕТ|87.88|55.82281093550568|37.75459676614082
PS707|2020-08-25 00:00:00|Пермский край,город Пермь,улица Вильямса, дом 14|ПН-ПТ 00:00-23:59, СБ 00:00-23:59, ВС 00:00-23:59|НЕТ|95.0|58.10382001944996|56.29876996218169
PS729|2020-08-25 00:00:00|Самарская область,город Самара, мкр Крутые Ключи,улица Мира, дом 6|ПН-ПТ 08:30-18:30, СБ 09:00-14:30, ВС выходной|НЕТ|98.52|53.31733999462674|50.30440002228337
PS497|2020-08-26 00:00:00|г Санкт-Петербург, Петроградский район , Каменноостровский проспект , дом 41|ПН-ПТ 00:00-23:59, СБ 00:00-23:59, ВС 00:00-23:59|НЕТ|100.0|59.96832999864981|30.30982999611172
PS498|2020-08-26 00:00:00|г Санкт-Петербург, Невский район ,улица Тельмана, дом 48 корпус 1|ПН-ПТ 10:00-19:00, СБ-ВС выходной|НЕТ|94.62|59.8931900085384|30.48324998025004
PS501|2020-08-26 00:00:00|г Санкт-Петербург, проспект Энтузиастов, дом 38|ПН-ПТ 10:00-19:00, СБ-ВС выходной|НЕТ|100.0|59.95022001673942|30.4831899658233
PS525|2020-08-26 00:00:00|г Санкт-Петербург, Морская наб, дом 17|ПН-ПТ 00:00-23:59, СБ 00:00-23:59, ВС 00:00-23:59|НЕТ|100.0|59.94305001103461|30.2077700152098
PS581|2020-08-26 00:00:00|Оренбургская область,город Оренбург,улица Терешковой, дом 247|ПН-ПТ 00:00-23:59, СБ 00:00-23:59, ВС 00:00-23:59|НЕТ|87.55|51.84611498929846|55.10642499900723
PS586|2020-08-26 00:00:00|Самарская область,город Самара, Советский район ,улица Победы, дом 84|ПН-ПТ 00:00-23:59, СБ 00:00-23:59, ВС 00:00-23:59|НЕТ|99.12|53.20955001898554|50.24078003607727
PS609|2020-08-26 00:00:00|Краснодарский край, Кущевский район , станица Кущевская, пер Куцева, дом 54|ПН выходной, ВТ-ПТ 08:15-16:00, СБ 08:00-14:15, ВС выходной|НЕТ|98.85|46.56355001337991|39.62766997498818
PS617|2020-08-26 00:00:00|Ставропольский край,город Ставрополь,улица Бурмистрова, дом 65Б|ПН-ПТ 00:00-23:59, СБ 00:00-23:59, ВС 00:00-23:59|НЕТ|96.36|45.06329998609763|41.98175002913072
PS672|2020-08-26 00:00:00|Рязанская область,город Рязань,улица Ленина, дом 2/68|ПН-ПТ 00:00-23:59, СБ 00:00-23:59, ВС 00:00-23:59|НЕТ|93.64|54.62240998848455|39.75588995951966
PS682|2020-08-26 00:00:00|Рязанская область,город Рязань, Монастырская пл, дом 6|ПН выходной, ВТ-ПТ 08:45-17:15, СБ 08:45-16:45, ВС выходной|НЕТ|95.56|54.79058000947842|39.83527001917142
PS728|2020-08-26 00:00:00|Самарская область,город Чапаевск,улица Октябрьская, дом 10|ПН-ПТ 09:00-18:00, СБ 09:00-12:30, ВС выходной|НЕТ|96.0|52.9830100168395|49.71569001195752
PS351|2020-08-27 00:00:00|Удмуртская Респ,город Ижевск,улица Ворошилова, дом 53|ПН-ПТ 09:00-19:30, СБ 10:00-13:00, ВС выходной|НЕТ|95.56|56.87726000178478|53.26918998419734
PS358|2020-08-27 00:00:00|Удмуртская Респ,город Ижевск,улица Удмуртская, дом 231|ПН-ПТ 00:00-23:59, СБ 00:00-23:59, ВС 00:00-23:59|НЕТ|95.65|56.84712001907039|53.22565002051445
PS569|2020-08-27 00:00:00|Удмуртская Респ,город Ижевск,улица Молодежная, дом 33|ПН-ПТ 00:00-23:59, СБ 00:00-23:59, ВС 00:00-23:59|НЕТ|95.56|56.85282000659632|53.29002001941672
PS571|2020-08-27 00:00:00|Оренбургская область,город Оренбург, Парковый проспект , дом 13|ПН-ПТ 00:00-23:59, СБ 00:00-23:59, ВС 00:00-23:59|НЕТ|96.23|51.77412001498701|55.07961996601875
PS577|2020-08-27 00:00:00|Оренбургская область,город Оренбург, Центральный район , проспект Победы, дом 126|ПН-ПТ 09:00-18:30, СБ 09:00-14:30, ВС выходной|НЕТ|99.26|51.79265001406552|55.12719003256746
PS647|2020-08-27 00:00:00|г Москва,улица Новопетровская, дом 10|ПН-ПТ 08:30-19:30, СБ 09:00-16:30, ВС выходной|НЕТ|100.0|55.82635998997202|37.51888003084755
PS727|2020-08-27 00:00:00|Самарская область,город Тольятти, бульвар 50 лет Октября, дом 10|ПН-ПТ 09:00-18:00, СБ-ВС выходной|НЕТ|96.23|53.53012998752769|49.40411002813099
PS731|2020-08-27 00:00:00|Самарская область,город Самара,улица Георгия Димитрова, дом 108|ПН-ПТ 09:00-18:00, СБ 09:00-14:30, ВС выходной|НЕТ|96.3|53.26030001196094|50.22373996219773
PS941|2020-08-27 00:00:00|г Санкт-Петербург,город Красное Село,улица Театральная, дом 6|ПН-ПТ 00:00-23:59, СБ 00:00-23:59, ВС 00:00-23:59|НЕТ|89.97|59.79278997974134|30.12308999436121
PS945|2020-08-27 00:00:00|г. Санкт-Петербург,город САНКТ-ПЕТЕРБУРГ, проспект . Ветеранов,дом , 114|ПН-ПТ 00:00-23:59, СБ 00:00-23:59, ВС 00:00-23:59|НЕТ|93.44|59.83190548722165|30.19539632926751
PS949|2020-08-27 00:00:00|г Санкт-Петербург, Красногвардейский район , шоссе Революции, дом 16|ПН-ПТ 00:00-23:59, СБ 00:00-23:59, ВС 00:00-23:59|НЕТ|100.0|59.95959999503549|30.41690998264446
PS197|2020-08-28 00:00:00|г Москва,улица Профсоюзная, дом 144|ПН-ПТ 00:00-23:59, СБ 00:00-23:59, ВС 00:00-23:59|НЕТ|100.0|55.62449999881187|37.50813996303273
PS346|2020-08-28 00:00:00|Удмуртская Респ,город Воткинск,улица Привокзальная, дом 1|ПН-ПТ 09:00-18:00, СБ-ВС выходной|НЕТ|95.92|57.04410999875708|54.01630002726628
PS347|2020-08-28 00:00:00|Удмуртская Респ,город Воткинск,улица Спорта, дом 8|ПН-ПТ 00:00-23:59, СБ 00:00-23:59, ВС 00:00-23:59|НЕТ|95.24|57.05034001593029|53.98719998727887
PS367|2020-08-28 00:00:00|Удмуртская Респ,город Ижевск,улица Клубная, дом 59|ПН-ПТ 00:00-23:59, СБ 00:00-23:59, ВС 00:00-23:59|НЕТ|95.24|56.82905001883816|53.13565998018518
PS471|2020-08-28 00:00:00|г Москва,улица Островитянова, дом 18|ПН-ПТ 08:30-18:30, СБ 09:00-13:00, ВС выходной|НЕТ|100.0|55.63621002046216|37.51124998438695
PS538|2020-08-28 00:00:00|Нижегородская область,город Нижний Новгород, Союзный проспект , дом 3|ПН-ПТ 00:00-23:59, СБ 00:00-23:59, ВС 00:00-23:59|НЕТ|96.55|56.35780001820893|43.85734997869346
PS558|2020-08-28 00:00:00|Нижегородская область,город Нижний Новгород, Автозаводский район ,улица Космическая, дом 51|ПН-ПТ 00:00-23:59, СБ 00:00-23:59, ВС 00:00-23:59|НЕТ|99.36|56.22997000172268|43.82025997332309
PS561|2020-08-28 00:00:00|Нижегородская область,город Нижний Новгород, проспект Октября, дом 3|ПН-ПТ 00:00-23:59, СБ 00:00-23:59, ВС 00:00-23:59|НЕТ|96.55|56.24359998211432|43.86291003034586
PS639|2020-08-28 00:00:00|г Москва,улица Профсоюзная, дом 115 корпус 1|ПН-ПТ 00:00-23:59, СБ 00:00-23:59, ВС 00:00-23:59|НЕТ|92.22|55.63071415591562|37.51819060504251
PS856|2020-08-28 00:00:00|Удмуртская Респ,город Ижевск,улица Баранова, дом 79|ПН-ПТ 00:00-23:59, СБ 00:00-23:59, ВС 00:00-23:59|НЕТ|95.35|56.83202002049984|53.12906996027058
PS943|2020-08-28 00:00:00|г Санкт-Петербург, проспект Большевиков, дом 9 корпус 1|ПН-ПТ 10:00-19:00, СБ 11:00-16:00, ВС выходной|НЕТ|93.78|59.91436001375055|30.47428997721258
PS348|2020-08-30 00:00:00|Удмуртская Респ,город Воткинск,улица Мира, дом 25|ПН-ПТ 00:00-23:59, СБ 00:00-23:59, ВС 00:00-23:59|НЕТ|95.12|57.06454000764737|53.98689999896422
PS459|2020-08-30 00:00:00|Пермский край,город Пермь,улица Адмирала Ушакова, дом 36|ПН-ПТ 00:00-23:59, СБ 00:00-23:59, ВС 00:00-23:59|НЕТ|95.74|58.03228001484288|56.01351996698116
PS468|2020-08-30 00:00:00|г Москва, проспект Маршала Жукова, дом 11 корпус 1|ПН-ПТ 08:30-19:30, СБ 09:00-16:30, ВС выходной|НЕТ|92.99|55.77506999288457|37.50645000371452
PS531|2020-08-30 00:00:00|Нижегородская область,город Нижний Новгород, Автозаводский район ,улица Мончегорская, дом 6А корпус 2|ПН-ПТ 08:30-18:00, СБ 09:00-15:00, ВС выходной|НЕТ|98.6|56.23487999487429|43.83371996871836
PS540|2020-08-30 00:00:00|Нижегородская область,город Нижний Новгород, Сормовский район ,улица Героев космоса, дом 8А|ПН-ВС 05:00-23:59|НЕТ|99.35|56.36000001633539|43.8211399893375
PS613|2020-08-30 00:00:00|Ставропольский край,город Железноводск,улица Ленина, дом 97|ПН-ПТ 00:00-23:59, СБ 00:00-23:59, ВС 00:00-23:59|НЕТ|96.08|44.14040001767705|43.01023997506604
PS616|2020-08-30 00:00:00|Ставропольский край,город Ставрополь,улица Пирогова, дом 42/1|ПН-ПТ 00:00-23:59, СБ 00:00-23:59, ВС 00:00-23:59|НЕТ|95.38|45.00847190704935|41.91302210706156
PS637|2020-08-30 00:00:00|г Москва, район Дорогомилово, Кутузовский проспект , дом 30|ПН-ПТ 00:00-23:59, СБ 00:00-23:59, ВС 00:00-23:59|НЕТ|94.0|55.74147000244886|37.53737998080317
PS660|2020-08-30 00:00:00|г Москва, Рязанский проспект , дом 58/1|ПН-ПТ 08:30-19:30, СБ 09:30-16:30, ВС выходной|НЕТ|98.67|55.71634866963689|37.79816106687097
PS667|2020-08-30 00:00:00|Рязанская область,город Рязань,улица Гоголя, дом 44|ПН-ПТ 09:00-18:30, СБ 09:00-16:30, ВС 09:00-13:00|НЕТ|95.35|54.6030500133536|39.71346998573907
PS306|2020-08-31 00:00:00|г Москва, Чертаново Центральное район ,улица Чертановская, дом 32 строение а|ПН-ПТ 00:00-23:59, СБ 00:00-23:59, ВС 00:00-23:59|НЕТ|94.33|55.61780934306996|37.59301492906886
PS354|2020-08-31 00:00:00|Удмуртская Респ, Завьяловский район , село Завьялово,улица Чкалова, дом 22|ПН-ПТ 08:30-16:45, СБ-ВС выходной|НЕТ|99.34|56.78838999326732|53.37638002511878
PS523|2020-08-31 00:00:00|г Санкт-Петербург, Красносельский район , Ленинский проспект , дом 56|ПН-ПТ 00:00-23:59, СБ 00:00-23:59, ВС 00:00-23:59|НЕТ|100.0|59.86672000021986|30.15913997318555
PS590|2020-08-31 00:00:00|Оренбургская область,город Бузулук,улица Комсомольская, дом 100|ПН-ПТ 00:00-23:59, СБ 00:00-23:59, ВС 00:00-23:59|НЕТ|96.36|52.78805000837335|52.26202997018677
PS614|2020-08-31 00:00:00|Ставропольский край, Нефтекумский район ,город Нефтекумск,улица Дзержинского, дом 13|ПН-ПТ 08:00-18:00, СБ 08:00-12:30, ВС выходной|НЕТ|98.21|44.75119959109977|44.98439644696914
PS644|2020-08-31 00:00:00|г Москва,улица Севанская, дом 23|ПН-ПТ 09:30-19:30, СБ-ВС выходной|НЕТ|100.0|55.62392998748641|37.64825998695952
PS668|2020-08-31 00:00:00|обл. Рязанская,город Рязань, ш. Куйбышевское,дом , 14А|ПН-ПТ 00:00-23:59, СБ 00:00-23:59, ВС 00:00-23:59|НЕТ|89.61|54.60285999560861|39.76424998592782
PS673|2020-08-31 00:00:00|Рязанская область,город Рязань,улица Новоселов, дом 42|ПН-ПТ 00:00-23:59, СБ 00:00-23:59, ВС 00:00-23:59|НЕТ|95.65|54.60251000924154|39.81682999982351
PS677|2020-08-31 00:00:00|Рязанская область,город Рязань,улица Соколовская, дом 12/5|ПН-ПТ 08:30-17:00, СБ-ВС выходной|НЕТ|95.1|54.58111997907102|39.79444000860417
PS680|2020-08-31 00:00:00|Рязанская область,город Рязань,улица Высоковольтная, дом 5 корпус 1|ПН-ПТ 00:00-23:59, СБ 00:00-23:59, ВС 00:00-23:59|НЕТ|91.58|54.62381033791674|39.71372936552672
PS857|2020-08-31 00:00:00|Удмуртская Респ,город Ижевск,улица Ленина, дом 114|ПН-ПТ 00:00-23:59, СБ 00:00-23:59, ВС 00:00-23:59|НЕТ|95.24|56.84781001733981|53.26314998476911
PS940|2020-08-31 00:00:00|г. Санкт-Петербург,город Красное Село, проспект . Ленина,дом , 92|ПН-ПТ 00:00-23:59, СБ 00:00-23:59, ВС 00:00-23:59|НЕТ|82.85|59.82604381393627|30.08159883614551
PS953|2020-08-31 00:00:00|г Санкт-Петербург, Красносельский район , Петергофское шоссе, дом 45|ПН-ПТ 10:30-19:30, СБ-ВС выходной|НЕТ|100.0|59.84853001304367|30.15286997433421
PS1031|2020-09-03 00:00:00|Астраханская область,город Астрахань,улица Яблочкова, дом 1а|ПН-ПТ 00:00-23:59, СБ 00:00-23:59, ВС 00:00-23:59|НЕТ|96.15|46.37098999525|48.07930002365228
PS1091|2020-09-03 00:00:00|Ставропольский край, Новоалександровский район ,город Новоалександровск,улица Гагарина, дом 325|ПН-ПТ 00:00-23:59, СБ 00:00-23:59, ВС 00:00-23:59|НЕТ|99.4|45.49559002066758|41.21314995978639
PS410|2020-09-03 00:00:00|Волгоградская область,город Волгоград,улицаименимаршала Еременко, дом 68|ПН-ПТ 08:30-18:00, СБ 09:00-15:00, ВС выходной|НЕТ|85.08|48.76758000290374|44.54256000208787
PS550|2020-09-03 00:00:00|Нижегородская область,город Нижний Новгород,улица Чаадаева, дом 16|ПН-ПТ 00:00-23:59, СБ 00:00-23:59, ВС 00:00-23:59|НЕТ|96.49|56.32997000419067|43.84610003970849
PS551|2020-09-03 00:00:00|Нижегородская область,город Нижний Новгород,улица Большая Покровская, дом 3|ПН-ПТ 00:00-23:59, СБ 00:00-23:59, ВС 00:00-23:59|НЕТ|96.92|56.32558999877682|44.00374000147158
PS554|2020-09-03 00:00:00|Нижегородская область,город Нижний Новгород, Казанское шоссе, дом 5|ПН-ПТ 08:30-17:30, СБ-ВС выходной|НЕТ|96.49|56.2952999799956|44.07529002245298
PS573|2020-09-03 00:00:00|Оренбургская область,город Бугуруслан,улица Революционная, дом 13|ПН-ПТ 00:00-23:59, СБ 00:00-23:59, ВС 00:00-23:59|НЕТ|96.49|53.64995998034718|52.43509003540274
PS624|2020-09-03 00:00:00|Краснодарский край,город Сочи, Адлерский район ,улица Ленина, дом 221/1|ПН-ПТ 00:00-23:59, СБ 00:00-23:59, ВС 00:00-23:59|НЕТ|98.97|43.48499000700423|39.89236997435447
PS626|2020-09-03 00:00:00|Краснодарский край,город Сочи, Адлерский район ,улица Демократическая, дом 22|ПН-ПТ 09:00-18:00, СБ 09:00-14:30, ВС выходной|НЕТ|99.23|43.42302738362373|39.92343298503443
PS628|2020-09-03 00:00:00|Краснодарский край,город Сочи, Адлерский район ,улица Ленина, дом 78|ПН-ПТ 00:00-23:59, СБ 00:00-23:59, ВС 00:00-23:59|НЕТ|99.11|43.43186998899648|39.91629997264423
PS696|2020-09-03 00:00:00|Ростовская область,город Азов,улица Васильева, дом 89|ПН-ПТ 08:00-16:30, СБ 08:00-14:30, ВС выходной|НЕТ|95.56|47.10334998420595|39.40967000062096
PS697|2020-09-03 00:00:00|Ростовская область,город Ростов-на-Дону,улица Гагринская, дом 3|ПН-ВС 09:00-21:00|НЕТ|96.23|47.2616900025223|39.6529399881386
PS765|2020-09-03 00:00:00|Чувашская республика - Чувашия,город Чебоксары, проспект Тракторостроителей, дом 71|ПН-ПТ 08:00-19:00, СБ 08:00-16:30, ВС выходной|НЕТ|93.24|56.10590999764665|47.31955996124054
PS771|2020-09-03 00:00:00|Республика Татарстан,город Казань, проспект Победы, дом 17|ПН-ПТ 00:00-23:59, СБ 00:00-23:59, ВС 00:00-23:59|НЕТ|95.92|55.74708998470896|49.20069003906133
PS774|2020-09-03 00:00:00|Республика Марий Эл,город Йошкар-Ола,улица Пролетарская, дом 44|ПН-ПТ 00:00-23:59, СБ 00:00-23:59, ВС 00:00-23:59|НЕТ|96.23|56.64696000360277|47.88846001396351
PS777|2020-09-03 00:00:00|Кировская область,город Киров,улица Горького, дом 25|ПН-ПТ 09:00-18:30, СБ выходной, ВС 09:00-14:30|НЕТ|100.0|58.59815000000003|49.65007000000003
PS805|2020-09-03 00:00:00|Тюменская область,город Тюмень,улица Мориса Тореза, дом 1|ПН-ПТ 00:00-23:59, СБ 00:00-23:59, ВС 00:00-23:59|НЕТ|95.83|57.14706998651246|65.55025996898777
PS810|2020-09-03 00:00:00|Тюменская область,город Тюмень,улица Моторостроителей, дом 5|ПН-ПТ 00:00-23:59, СБ 00:00-23:59, ВС 00:00-23:59|НЕТ|96.15|57.10609999816216|65.60594002977291
PS829|2020-09-03 00:00:00|Ростовская область,город Батайск, мкр Авиагородок, дом 14|ПН выходной, ВТ-ПТ 08:00-18:00, СБ 08:30-14:30, ВС выходной|НЕТ|95.83|47.1262700050726|39.78260995810041
PS903|2020-09-03 00:00:00|Липецкая область,город Липецк, Октябрьский округ, проспект Имени 60-летия СССР, дом 2Б|ПН-ПТ 00:00-23:59, СБ 00:00-23:59, ВС 00:00-23:59|НЕТ|79.75|52.58393000466|39.54195998587736
PS904|2020-09-03 00:00:00|Липецкая область,город Липецк, Советский округ,улица Гагарина, дом 131А|ПН-ПТ 00:00-23:59, СБ 00:00-23:59, ВС 00:00-23:59|НЕТ|87.33|52.62189998413524|39.55939996035741
PS906|2020-09-03 00:00:00|Липецкая область,город Липецк,улица Космонавтов, дом 9|ПН-ПТ 00:00-23:59, СБ 00:00-23:59, ВС 00:00-23:59|НЕТ|95.65|52.61603001161293|39.56610003466071
PS911|2020-09-03 00:00:00|Тульская область,город Тула,улица Октябрьская, дом 20|ПН-ПТ 00:00-23:59, СБ 00:00-23:59, ВС 00:00-23:59|НЕТ|100.0|54.23577000000006|37.51220000000006
PS952|2020-09-03 00:00:00|г Санкт-Петербург, Колпинский район , поселок Металлострой,улица Центральная, дом 2/7|ПН-ПТ 00:00-23:59, СБ 00:00-23:59, ВС 00:00-23:59|НЕТ|90.02|59.80699834376622|30.57138754226489
PS1035|2020-09-04 00:00:00|Астраханская область,город Астрахань,улица Свердлова, дом 98|ПН-ПТ 00:00-23:59, СБ 00:00-23:59, ВС 00:00-23:59|НЕТ|96.15|46.34671998505794|48.05360999333374
PS1037|2020-09-04 00:00:00|Астраханская область,город Астрахань, проезд Воробьева, дом 12|ПН-ПТ 00:00-23:59, СБ 00:00-23:59, ВС 00:00-23:59|НЕТ|96.23|46.32897000588895|48.04934000039907
PS1041|2020-09-04 00:00:00|Астраханская область,город Астрахань,улица Богдана Хмельницкого, дом 24|ПН-ПТ 00:00-23:59, СБ 00:00-23:59, ВС 00:00-23:59|НЕТ|96.77|46.33525999557938|48.01805999503381
PS1046|2020-09-04 00:00:00|Ставропольский край,город Пятигорск,улица Орджоникидзе, дом 21|ПН-ПТ 08:30-18:00, СБ 08:30-15:30, ВС 09:00-14:00|НЕТ|96.3|44.06052001941043|43.06321997338125
PS1047|2020-09-04 00:00:00|Ставропольский край,город Пятигорск,улица Панагюриште, дом 4|ПН-ПТ 08:30-18:30, СБ 08:30-16:00, ВС выходной|НЕТ|96.15|44.05483998081405|43.0636300160846
PS1048|2020-09-04 00:00:00|Ставропольский край,город Пятигорск,улица Февральская, дом 54|ПН выходной, ВТ-ПТ 08:00-17:30, СБ 08:30-15:30, ВС выходной|НЕТ|96.23|44.038890015352|43.03636997148226
PS1057|2020-09-04 00:00:00|Краснодарский край,город Краснодар, Карасунский округ, поселок Лорис,улицаимениВасильченко В.Т., дом 3|ПН выходной, ВТ-ПТ 08:30-17:15, СБ 08:30-15:15, ВС выходной|НЕТ|81.13|45.01460000000003|39.05478000000005
PS1117|2020-09-04 00:00:00|г Санкт-Петербург, проспект Ветеранов, дом 95|ПН-ПТ 00:00-23:59, СБ 00:00-23:59, ВС 00:00-23:59|НЕТ|100.0|59.83368000473533|30.20778996413935
PS422|2020-09-04 00:00:00|Волгоградская область,город Волгоград, Центральный район ,улица Коммунистическая, дом 40|ПН-ПТ 00:00-23:59, СБ 00:00-23:59, ВС 00:00-23:59|НЕТ|99.34|48.71757000625021|44.52693001577953
PS532|2020-09-04 00:00:00|Нижегородская область,город Арзамас,улица Мучной ряд, дом 1|ПН-ПТ 00:00-23:59, СБ 00:00-23:59, ВС 00:00-23:59|НЕТ|96.0|55.38522998121812|43.81690000361618
PS541|2020-09-04 00:00:00|Нижегородская область,город Нижний Новгород, Сормовский район ,улица Культуры, дом 113|ПН-ПТ 00:00-23:59, СБ 00:00-23:59, ВС 00:00-23:59|НЕТ|99.32|56.34441001170521|43.83810001604169
PS553|2020-09-04 00:00:00|Нижегородская область,город Нижний Новгород,площадь Максима Горького, дом 4|ПН-ВС 05:00-23:59|НЕТ|96.92|56.31462998982269|43.99048997275088
PS599|2020-09-04 00:00:00|Республика Дагестан,город Махачкала, Ленинский район , проспект Гамидова, дом 15А|ПН-ПТ 08:00-17:00, СБ-ВС выходной|НЕТ|94.34|42.96594895139762|47.51467637150888
PS600|2020-09-04 00:00:00|Республика Дагестан,город Буйнакск,улица Чкалова, дом 7|ПН-ПТ 08:00-18:00, СБ-ВС выходной|НЕТ|95.74|42.82179999762297|47.12420998472916
PS607|2020-09-04 00:00:00|Карачаево-Черкесская Респ,город Черкесск,улица Красноармейская, дом 52|ПН-ПТ 08:30-17:30, СБ-ВС выходной|НЕТ|96.72|44.22982997923617|42.04931998720826
PS625|2020-09-04 00:00:00|Краснодарский край,город Сочи, Центральный район ,улица Горького, дом 36|ПН-ПТ 00:00-23:59, СБ 00:00-23:59, ВС 00:00-23:59|НЕТ|92.19|56.01831001509834|92.84879997039621
PS629|2020-09-04 00:00:00|Краснодарский край,город Сочи, Центральный район ,улица Войкова, дом 2|ПН-ПТ 00:00-23:59, СБ 00:00-23:59, ВС 00:00-23:59|НЕТ|85.52|43.58056000600595|39.72140999497913
PS631|2020-09-04 00:00:00|край. Краснодарский,город Сочи, улица Московская,дом , 22, А|ПН-ПТ 08:30-17:30, СБ 09:00-15:00, ВС выходной|НЕТ|91.08|43.5940099850269|39.72331000479093
PS684|2020-09-04 00:00:00|Волгоградская область,город Волжский,улица Мира, дом 36|ПН-ПТ 00:00-23:59, СБ 00:00-23:59, ВС 00:00-23:59|НЕТ|95.74|48.77611998877308|44.79737002625939
PS710|2020-09-04 00:00:00|Пермский край,город Пермь,улица Ласьвинская, дом 19|ПН-ПТ 09:00-19:00, СБ 10:00-14:30, ВС выходной|НЕТ|95.35|58.00174998026424|55.94424999130158
PS720|2020-09-04 00:00:00|Самарская область,город Самара, Кировский район ,улица Ташкентская, дом 91А|ПН-ПТ 00:00-23:59, СБ 00:00-23:59, ВС 00:00-23:59|НЕТ|99.21|53.24587999528546|50.25450003810903
PS758|2020-09-04 00:00:00|Республика Марий Эл,город Йошкар-Ола,улица Карла Маркса, дом 109Б|ПН-ПТ 00:00-23:59, СБ 00:00-23:59, ВС 00:00-23:59|НЕТ|96.3|56.62304999615208|47.89089001151308
PS773|2020-09-04 00:00:00|Республика Татарстан,город Казань, Ново-Савиновский район , проспект Ямашева, дом 54 корпус 3|ПН-ПТ 00:00-23:59, СБ 00:00-23:59, ВС 00:00-23:59|НЕТ|98.44|55.82737229558177|49.12544390552993
PS784|2020-09-04 00:00:00|Респ. Марий Эл,город Йошкар-Ола, улица Воинов-интернационалистов,дом , 21, А|ПН-ПТ 00:00-23:59, СБ 00:00-23:59, ВС 00:00-23:59|НЕТ|93.71|56.6339499906795|47.92743997086185
PS838|2020-09-04 00:00:00|Нижегородская область,город Нижний Новгород, Сормовский район ,улица Коминтерна, дом 168|ПН-ПТ 08:30-18:30, СБ 09:00-14:30, ВС выходной|НЕТ|99.33|56.34999001228715|43.86722000495868
PS848|2020-09-04 00:00:00|Саратовская область,город Энгельс,улица Тельмана, дом 26|ПН-ПТ 00:00-23:59, СБ 00:00-23:59, ВС 00:00-23:59|НЕТ|95.83|51.48794998018442|46.12291001068564
PS850|2020-09-04 00:00:00|Республика Татарстан,город Казань,улица Академика Губкина, дом 3|ПН-ПТ 08:00-20:00, СБ 08:30-16:30, ВС 10:00-14:00|НЕТ|96.36|55.80362001238561|49.18710004034781
PS918|2020-09-04 00:00:00|Воронежская область,город Воронеж, Железнодорожный район ,улица Генерала Лохматикова, дом 29|ПН-ПТ 08:30-16:30, СБ 08:30-12:30, ВС выходной|НЕТ|83.8|51.87913000671153|39.58299996311916
PS954|2020-09-04 00:00:00|г Санкт-Петербург, Ленинский проспект , дом 129|ПН-ПТ 10:00-19:30, СБ 10:00-17:30, ВС 11:00-16:30|НЕТ|100.0|59.85129998058608|30.27007001930386
PS994|2020-09-04 00:00:00|Пермский край,город Пермь, бульвар Гагарина, дом 60|ПН-ПТ 09:00-18:30, СБ-ВС выходной|НЕТ|95.24|58.00028000399485|56.28615000112268
PS1028|2020-09-06 00:00:00|Астраханская область, Ахтубинский район ,город Ахтубинск,улица Щербакова, дом 7|ПН-ПТ 00:00-23:59, СБ 00:00-23:59, ВС 00:00-23:59|НЕТ|99.25|48.27955999331527|46.16772000033768
PS1029|2020-09-06 00:00:00|Астраханская область,город Астрахань,улица Бабаевского, строение 39г|ПН-ПТ 00:00-23:59, СБ 00:00-23:59, ВС 00:00-23:59|НЕТ|86.77|46.39958154410643|48.0970136299411
PS1030|2020-09-06 00:00:00|Астраханская область,город Астрахань,улица Новороссийская, дом 12|ПН-ПТ 00:00-23:59, СБ 00:00-23:59, ВС 00:00-23:59|НЕТ|96.49|46.38318000658563|48.09555999380331
PS1032|2020-09-06 00:00:00|Астраханская область,город Астрахань,улица Яблочкова, дом 34|ПН-ПТ 00:00-23:59, СБ 00:00-23:59, ВС 00:00-23:59|НЕТ|96.15|46.36591001710198|48.06994003619531
PS1033|2020-09-06 00:00:00|Астраханская область,город Астрахань,улица Анри Барбюса, дом 17|ПН-ПТ 00:00-23:59, СБ 00:00-23:59, ВС 00:00-23:59|НЕТ|96.3|46.36245000938067|48.04614004122379
PS1038|2020-09-06 00:00:00|Астраханская область,город Астрахань,улица Кирова, дом 41|ПН-ПТ 00:00-23:59, СБ 00:00-23:59, ВС 00:00-23:59|НЕТ|95.92|46.3437299925572|48.03804002145213
PS1042|2020-09-06 00:00:00|Астраханская область,город Астрахань, Заводская пл, дом 39|ПН-ПТ 08:30-18:00, СБ 08:00-14:00, ВС выходной|НЕТ|95.92|46.33683000986318|47.98411001823104
PS1043|2020-09-06 00:00:00|Астраханская область,город Астрахань, Грановский пер, дом 59|ПН-ПТ 08:30-18:00, СБ 08:30-14:00, ВС выходной|НЕТ|96.08|46.36217998636988|47.98352001606651
PS1044|2020-09-06 00:00:00|Ставропольский край, Минераловодский район ,город Минеральные Воды, проспект 22 Партсъезда, дом 137|ПН-ПТ 00:00-23:59, СБ 00:00-23:59, ВС 00:00-23:59|НЕТ|88.1|44.19491998115319|43.13321003836265
PS1045|2020-09-06 00:00:00|Ставропольский край,город Георгиевск,улица Калинина, дом 11|ПН-ПТ 00:00-23:59, СБ 00:00-23:59, ВС 00:00-23:59|НЕТ|96.08|44.14610997966776|43.47227000793083
PS1064|2020-09-06 00:00:00|г Москва, район Ново-Переделкино,улица Новопеределкинская, дом 7А|ПН-ПТ 08:30-19:30, СБ 09:00-16:00, ВС выходной|НЕТ|94.52|55.6398900112323|37.36682996031215
PS1145|2020-09-06 00:00:00|Ульяновская область,город Ульяновск, Ульяновский проспект , дом 12|ПН-ПТ 00:00-23:59, СБ 00:00-23:59, ВС 00:00-23:59|НЕТ|96.43|54.3736799873289|48.5836999903357
PS189|2020-09-06 00:00:00|Ростовская область,город Таганрог,улица Петровская, дом 54|ПН-ПТ 00:00-23:59, СБ 00:00-23:59, ВС 00:00-23:59|НЕТ|96.0|47.21130998675307|38.93673997322878
PS601|2020-09-06 00:00:00|Республика Дагестан,город Махачкала, Советский район , пгт Тарки, проспект Амет-Хана Султана, дом 9/2|ПН-ПТ 09:00-18:00, СБ-ВС выходной|НЕТ|93.6|42.94920839974674|47.50217227174856
PS650|2020-09-06 00:00:00|г Москва, район Сокол,улица Алабяна, дом 13 корпус 1|ПН-ПТ 08:00-19:30, СБ 09:00-15:30, ВС выходной|НЕТ|86.6|55.79986373127759|37.50451071917919
PS662|2020-09-06 00:00:00|г Москва, Коровинское шоссе, дом 5 корпус 1|ПН-ПТ 09:00-21:00, СБ 09:00-17:00, ВС выходной|НЕТ|91.76|55.86719101724748|37.54088454010522
PS709|2020-09-06 00:00:00|Пермский край,город Пермь,улица Ветлужская, дом 99|ПН-ПТ 00:00-23:59, СБ 00:00-23:59, ВС 00:00-23:59|НЕТ|95.24|58.04513999169933|56.08818000931674
PS722|2020-09-06 00:00:00|Ульяновская область,город Ульяновск,улица Врача Михайлова, дом 41|ПН-ПТ 00:00-23:59, СБ 00:00-23:59, ВС 00:00-23:59|НЕТ|96.43|54.35286001039336|48.53960003170167
PS732|2020-09-06 00:00:00|Самарская область,город Самара,улица Стара Загора, дом 139|ПН-ПТ 00:00-23:59, СБ 00:00-23:59, ВС 00:00-23:59|НЕТ|95.92|53.23527001460795|50.22244998729903
PS778|2020-09-06 00:00:00|Республика Татарстан,город Казань,улица Максимова, дом 2|ПН-ПТ 09:00-18:00, СБ 09:00-15:00, ВС выходной|НЕТ|95.83|55.86018000536606|49.09966002642162
PS780|2020-09-06 00:00:00|Республика Татарстан,город Казань,улица Фрунзе, дом 1|ПН-ПТ 00:00-23:59, СБ 00:00-23:59, ВС 00:00-23:59|НЕТ|95.56|55.82538001976226|49.04376002449717
PS788|2020-09-06 00:00:00|Челябинская область,город Магнитогорск,улица Салтыкова-Щедрина, дом 1|ПН выходной, ВТ-ПТ 08:30-17:30, СБ 08:30-15:15, ВС выходной|НЕТ|96.67|53.46624002022028|59.06483002894782
PS832|2020-09-06 00:00:00|Ростовская область,город Ростов-на-Дону,площадь Толстого, дом 6А|ПН-ПТ 08:00-18:00, СБ 08:00-16:00, ВС выходной|НЕТ|96.3|47.23150999622024|39.76519001636896
PS852|2020-09-06 00:00:00|Республика Татарстан,город Казань, проспект Ямашева, дом 97|ПН-ПТ 00:00-23:59, СБ 00:00-23:59, ВС 00:00-23:59|НЕТ|96.0|55.82517998564299|49.15287999862474
PS854|2020-09-06 00:00:00|Республика Татарстан,город Казань, Авиастроительный район ,улица Побежимова, дом 17|ПН-ПТ 00:00-23:59, СБ 00:00-23:59, ВС 00:00-23:59|НЕТ|99.3|55.85829998639332|49.08732999539345
PS873|2020-09-06 00:00:00|г Москва, район Солнцево,улица 50 лет Октября, дом 11|ПН-ПТ 00:00-23:59, СБ 00:00-23:59, ВС 00:00-23:59|НЕТ|93.41|55.65164998902551|37.41279003089889
PS874|2020-09-06 00:00:00|г Москва, район Коптево,улица Большая Академическая, дом 15 корпус 1|ПН-ПТ 00:00-23:59, СБ 00:00-23:59, ВС 00:00-23:59|НЕТ|89.68|55.82352248152537|37.52745051396258
PS902|2020-09-06 00:00:00|Липецкая область,город Липецк, Заводская пл, дом 8|ПН-ПТ 00:00-23:59, СБ 00:00-23:59, ВС 00:00-23:59|НЕТ|95.12|52.63579001307292|39.66408004037294
PS914|2020-09-06 00:00:00|Тульская область,город Тула, Привокзальный район , Одоевское шоссе, дом 30|ПН-ПТ 00:00-23:59, СБ 00:00-23:59, ВС 00:00-23:59|НЕТ|96.8|54.19555000224875|37.56160996740758
PS1066|2020-09-07 00:00:00|г Москва,улица Адмирала Лазарева, дом 24|ПН-ПТ 00:00-23:59, СБ 00:00-23:59, ВС 00:00-23:59|НЕТ|100.0|55.5469100203118|37.53244999681249
PS1073|2020-09-07 00:00:00|г Москва, район Выхино-Жулебино, Жулебинский бульвар , дом 28 корпус 1|ПН-ПТ 08:30-19:30, СБ 09:00-16:30, ВС выходной|НЕТ|89.68|55.69028445227369|37.85421284028571
PS1090|2020-09-07 00:00:00|Краснодарский край,город Сочи, Центральный район ,улица Труда, дом 4|ПН-ПТ 00:00-23:59, СБ 00:00-23:59, ВС 00:00-23:59|НЕТ|85.0|43.6385400191129|39.75124998937883
PS1121|2020-09-07 00:00:00|г Санкт-Петербург,улица Севастьянова, дом 7|ПН-ПТ 00:00-23:59, СБ 00:00-23:59, ВС 00:00-23:59|НЕТ|100.0|59.8746499930856|30.32907995876349
PS1124|2020-09-07 00:00:00|г. Санкт-Петербург,город Ломоносов, проспект . Дворцовый,дом , 22, корпус, А|ПН-ПТ 00:00-23:59, СБ 00:00-23:59, ВС 00:00-23:59|НЕТ|88.76|59.91482001259681|29.77120001324042
PS344|2020-09-07 00:00:00|Республика Татарстан, Альметьевский район ,город Альметьевск,улица Гафиатуллина, дом 8|ПН-ПТ 00:00-23:59, СБ 00:00-23:59, ВС 00:00-23:59|НЕТ|99.32|54.90645998851696|52.28118999501746
PS349|2020-09-07 00:00:00|Респ. Удмуртская,город Сарапул, улица Раскольникова,дом , 152, корпус, Б|ПН-ПТ 00:00-23:59, СБ 00:00-23:59, ВС 00:00-23:59|НЕТ|86.74|56.47489998325469|53.81670998121459
PS353|2020-09-07 00:00:00|Удмуртская Респ,город Ижевск,улица Ленина, дом 6|ПН-ПТ 00:00-23:59, СБ 00:00-23:59, ВС 00:00-23:59|НЕТ|95.0|56.84317000528944|53.20537000578148
PS357|2020-09-07 00:00:00|Удмуртская Респ,город Ижевск,улица Пушкинская, дом 157|ПН-ПТ 00:00-23:59, СБ 00:00-23:59, ВС 00:00-23:59|НЕТ|95.65|56.83560001516508|53.2158899648189
PS603|2020-09-07 00:00:00|Республика Дагестан,город Махачкала, Ленинский район ,улица Ирчи Казака, дом 37|ПН-ПТ 09:00-18:00, СБ-ВС выходной|НЕТ|99.24|42.95838998302742|47.51688999473905
PS605|2020-09-07 00:00:00|Карачаево-Черкесская Респ,город Черкесск, проспект Ленина, дом 53|ПН-ПТ 08:00-18:00, СБ 08:00-15:30, ВС выходной|НЕТ|96.36|44.22317001233955|42.04653996138208
PS606|2020-09-07 00:00:00|Респ. Карачаево-Черкесская,город Черкесск, улица Космонавтов,дом , 30, корпус, А|ПН-ПТ 00:00-23:59, СБ 00:00-23:59, ВС 00:00-23:59|НЕТ|90.97|44.19773998865753|42.04698001129879
PS630|2020-09-07 00:00:00|Краснодарский край,город Сочи, Центральный район ,улица Макаренко, дом 11|ПН-ПТ 08:30-18:00, СБ 09:00-14:00, ВС выходной|НЕТ|86.23|43.61246002074913|39.74146001028896
PS653|2020-09-07 00:00:00|г Москва,улица Плещеева, дом 4|ПН-ПТ 08:30-20:30, СБ 10:00-16:30, ВС 10:00-16:00|НЕТ|100.0|55.88373998454014|37.60642004087867
PS718|2020-09-07 00:00:00|Ульяновская область,город Ульяновск,улица 40-летия Октября, дом 9|ПН-ПТ 09:00-18:30, СБ-ВС выходной|НЕТ|96.36|54.34746998564688|48.54302001583531
PS853|2020-09-07 00:00:00|Респ. Татарстан, район . Лаишевский,город Лаишево, улица Лебедевой,дом , 36, строение, Б|ПН-ПТ 00:00-23:59, СБ 00:00-23:59, ВС 00:00-23:59|НЕТ|95.41|55.40488001210844|49.54319002551176
PS855|2020-09-07 00:00:00|Республика Татарстан, Лаишевский район , село Столбище,улица Советская, дом 55|ПН-ПТ 08:00-16:00, СБ-ВС выходной|НЕТ|99.38|55.65189000482295|49.21675999146734
PS862|2020-09-07 00:00:00|г Москва,улица Академика Челомея, дом 4Б|ПН-ПТ 09:30-19:00, СБ-ВС выходной|НЕТ|100.0|55.66234001687837|37.53363000114152
PS1036|2020-09-08 00:00:00|Астраханская область,город Астрахань,улица Софьи Перовской, дом 84|ПН-ПТ 00:00-23:59, СБ 00:00-23:59, ВС 00:00-23:59|НЕТ|96.49|46.34613999926771|48.068630028548
PS1040|2020-09-08 00:00:00|Астраханская область,город Астрахань,улица Боевая, дом 71|ПН-ПТ 00:00-23:59, СБ 00:00-23:59, ВС 00:00-23:59|НЕТ|95.92|46.32746000603188|48.02226997354174
PS1062|2020-09-08 00:00:00|Краснодарский край, Усть-Лабинский район , станица Воронежская,улица Ленина, дом 51|ПН выходной, ВТ-ПТ 08:00-16:00, СБ 08:00-14:00, ВС выходной|НЕТ|98.99|45.21289000996057|39.56627001965711
PS1085|2020-09-08 00:00:00|Краснодарский край,город Сочи, Центральный район ,улица Чебрикова, дом 38|ПН-ПТ 00:00-23:59, СБ 00:00-23:59, ВС 00:00-23:59|НЕТ|86.23|43.59617000147523|39.73585000249363
PS1086|2020-09-08 00:00:00|Краснодарский край, Туапсинский район ,город Туапсе,улица К. Маркса, дом 15|ПН-ПТ 08:30-17:30, СБ 09:00-15:30, ВС выходной|НЕТ|99.18|44.09847998251135|39.07666997941055
PS1147|2020-09-08 00:00:00|Ульяновская область,город Ульяновск,улица Металлистов, дом 17|ПН-ПТ 08:30-18:00, СБ 08:30-15:00, ВС выходной|НЕТ|96.23|54.33085998721927|48.48334002703584
PS1148|2020-09-08 00:00:00|Ульяновская область,город Ульяновск, Ленинский район ,улица Можайского, дом 6А корпус 2|ПН-ПТ 00:00-23:59, СБ 00:00-23:59, ВС 00:00-23:59|НЕТ|98.36|54.32458001390313|48.39256996679705
PS1150|2020-09-08 00:00:00|Ульяновская область,город Ульяновск, Железнодорожный район ,улица Хрустальная, дом 38|ПН-ПТ 00:00-23:59, СБ 00:00-23:59, ВС 00:00-23:59|НЕТ|99.32|54.25844998297208|48.33379002676057
PS246|2020-09-08 00:00:00|Республика Татарстан,город Казань,улица Рихарда Зорге, дом 70|ПН-ПТ 00:00-23:59, СБ 00:00-23:59, ВС 00:00-23:59|НЕТ|96.15|55.74642999365295|49.21337001454708
PS426|2020-09-08 00:00:00|Волгоградская область, Городищенский район ,рабочий поселок Городище, проспект Ленина, дом 6|ПН-ПТ 00:00-23:59, СБ 00:00-23:59, ВС 00:00-23:59|НЕТ|99.1|48.81033998858666|44.4800299985707
PS437|2020-09-08 00:00:00|Пермский край,город Пермь, Ленинский район ,улица Луначарского, дом 105|ПН-ПТ 09:30-18:30, СБ-ВС выходной|НЕТ|99.15|58.00269998517012|56.216079972785
PS640|2020-09-08 00:00:00|г Москва,улица Азовская, дом 24 строение 1|ПН-ПТ 08:30-20:00, СБ 09:00-17:00, ВС выходной|НЕТ|89.41|55.64698998613608|37.59655001461346
PS663|2020-09-08 00:00:00|г Москва, район Люблино,улица Совхозная, дом 39|ПН-ПТ 09:00-20:00, СБ 09:00-18:00, ВС выходной|НЕТ|98.68|55.67380000000003|37.76046000000008
PS683|2020-09-08 00:00:00|Волгоградская область,город Волгоград, Ворошиловский район ,улица Лужская, дом 28|ПН-ПТ 08:30-18:00, СБ-ВС выходной|НЕТ|99.28|48.69682999267096|44.4702400194808
PS706|2020-09-08 00:00:00|Пермский край,город Пермь, Мотовилихинский район ,улица Уральская, дом 69 корпус 1|ПН-ПТ 00:00-23:59, СБ 00:00-23:59, ВС 00:00-23:59|НЕТ|98.24|58.02890001238737|56.29917003042027
PS711|2020-09-08 00:00:00|Саратовская область,город Саратов, Заводской район ,улица Пензенская, дом 41|ПН-ПТ 00:00-23:59, СБ 00:00-23:59, ВС 00:00-23:59|НЕТ|99.22|51.49987998488353|45.94010003187699
PS716|2020-09-08 00:00:00|Ульяновская область,город Ульяновск, Железнодорожный район ,улица 12 Сентября, дом 83|ПН-ПТ 00:00-23:59, СБ 00:00-23:59, ВС 00:00-23:59|НЕТ|99.31|54.30178999635476|48.37848996202391
PS725|2020-09-08 00:00:00|Самарская область,город Тольятти,улица Фрунзе, дом 8в|ПН-ПТ 09:00-18:00, СБ 09:30-13:30, ВС выходной|НЕТ|95.56|53.51387001737666|49.2949100068281
PS760|2020-09-08 00:00:00|Чувашская республика - Чувашия,город Чебоксары,улица Мичмана Павлова, дом 39|ПН-ПТ 00:00-23:59, СБ 00:00-23:59, ВС 00:00-23:59|НЕТ|92.5|56.1353099840392|47.1618299778373
PS833|2020-09-08 00:00:00|Ростовская область, Аксайский район ,город Аксай, проспект Ленина, дом 18|ПН-ПТ 08:30-17:30, СБ 08:30-15:30, ВС выходной|НЕТ|99.17|47.2642000053377|39.85956999466734
PS860|2020-09-08 00:00:00|г Москва, район Нагатино-Садовники, проспект Андропова, дом 28 корпус 2|ПН-ПТ 08:30-20:30, СБ-ВС 09:30-18:00|НЕТ|89.97|55.67997998356819|37.66263000558254
PS878|2020-09-08 00:00:00|Московская область,город Балашиха,улица Некрасова, дом 12|ПН-ПТ 08:30-19:00, СБ 09:00-16:30, ВС выходной|НЕТ|95.92|55.79190999073532|37.97070995810009
PS926|2020-09-08 00:00:00|Воронежская область,город Воронеж, Центральный район , проспект Революции, дом 35|ПН-ПТ 00:00-23:59, СБ 00:00-23:59, ВС 00:00-23:59|НЕТ|99.26|51.6677200103494|39.20739003420221
PS934|2020-09-08 00:00:00|г Санкт-Петербург, Выборгский район , проспект Культуры, дом 22 корпус 1|ПН-ПТ 00:00-23:59, СБ 00:00-23:59, ВС 00:00-23:59|НЕТ|95.17|60.04704322191785|30.37487012514748
PS935|2020-09-08 00:00:00|г Санкт-Петербург, проспект Энгельса, дом 21|ПН-ПТ 00:00-23:59, СБ 00:00-23:59, ВС 00:00-23:59|НЕТ|100.0|60.00263000372919|30.32846003320461
PS936|2020-09-08 00:00:00|г Санкт-Петербург, Калининский район , проспект Просвещения, дом 53 корпус 1|ПН-ПТ 09:00-19:00, СБ 10:00-16:30, ВС выходной|НЕТ|95.48|60.04317000044657|30.37977002113115
PS957|2020-09-08 00:00:00|г Санкт-Петербург,улица Бабушкина, дом 111|ПН-ПТ 10:00-19:00, СБ-ВС выходной|НЕТ|100.0|59.86479999956899|30.45304000864414
PS1061|2020-09-09 00:00:00|Краснодарский край, Кореновский район , станица Платнировская,улица Красная, дом 22А|ПН выходной, ВТ-ПТ 08:30-17:15, СБ 08:00-14:15, ВС выходной|НЕТ|97.91|45.38999944599441|39.38764241984599
PS1087|2020-09-09 00:00:00|Краснодарский край,город Сочи, Адлерский район ,улица Гастелло, дом 5|ПН-ПТ 09:00-18:00, СБ-ВС выходной|НЕТ|99.12|43.44425999254187|39.90946000437694
PS1089|2020-09-09 00:00:00|Краснодарский край,город Сочи, Хостинский район ,улица Красных партизан, дом 5|ПН-ПТ 00:00-23:59, СБ 00:00-23:59, ВС 00:00-23:59|НЕТ|87.69|43.51061998098652|39.87125998356905
PS1097|2020-09-09 00:00:00|Воронежская область,город Воронеж, Коминтерновский район , Московский проспект , дом 129/1|ПН-ПТ 10:00-19:00, СБ 10:00-17:00, ВС 10:00-14:00|НЕТ|99.2|51.72777001826455|39.17736999652226
PS1105|2020-09-09 00:00:00|Воронежская область,город Воронеж, Коминтерновский район ,улица Владимира Невского, дом 24А|ПН-ПТ 00:00-23:59, СБ 00:00-23:59, ВС 00:00-23:59|НЕТ|99.36|51.70957001471407|39.15163001006079
PS1120|2020-09-09 00:00:00|г Санкт-Петербург, Адмиралтейский район , Троицкий проспект , дом 7|ПН-ПТ 00:00-23:59, СБ 00:00-23:59, ВС 00:00-23:59|НЕТ|100.0|59.91605001497831|30.29774999725527
PS552|2020-09-09 00:00:00|Нижегородская область,город Нижний Новгород, Советский район ,улица Бекетова, дом 3Б|ПН-ПТ 00:00-23:59, СБ 00:00-23:59, ВС 00:00-23:59|НЕТ|99.3|56.29081000401212|43.98794003016684
PS726|2020-09-09 00:00:00|Самарская область,город Тольятти, Комсомольский район ,улица Гидротехническая, влд 27А|ПН-ПТ 00:00-23:59, СБ 00:00-23:59, ВС 00:00-23:59|НЕТ|97.93|53.47299000875697|49.52750002477669
PS759|2020-09-09 00:00:00|Чувашская республика - Чувашия,город Чебоксары, Московский проспект , дом 5|ПН-ПТ 08:30-19:00, СБ 09:00-16:00, ВС выходной|НЕТ|92.26|56.14588999941287|47.23246997559093
PS761|2020-09-09 00:00:00|Чувашская республика - Чувашия,город Чебоксары, проспект Максима Горького, дом 32/25|ПН-ПТ 00:00-23:59, СБ 00:00-23:59, ВС 00:00-23:59|НЕТ|92.0|56.14935000713419|47.17694003469168
PS764|2020-09-09 00:00:00|Чувашская республика - Чувашия,город Чебоксары,улица Университетская, дом 20 корпус 1|ПН-ПТ 00:00-23:59, СБ 00:00-23:59, ВС 00:00-23:59|НЕТ|89.44|56.14336894355117|47.16712956307347
PS776|2020-09-09 00:00:00|Чувашская республика - Чувашия,город Чебоксары,улица Спиридона Михайлова, дом 1|ПН-ПТ 09:00-18:00, СБ-ВС выходной|НЕТ|92.84|56.14487998008025|47.21568999216692
PS806|2020-09-09 00:00:00|Тюменская область,город Тюмень,улица Ямская, дом 75 корпус 1|ПН-ПТ 09:00-18:30, СБ 09:00-16:00, ВС выходной|НЕТ|90.4|57.16024000996734|65.49307996662944
PS807|2020-09-09 00:00:00|Тюменская область,город Тюмень,улица Газовиков, дом 43|ПН-ПТ 09:00-18:30, СБ 09:00-15:00, ВС выходной|НЕТ|95.65|57.17347000593946|65.56064003406124
PS814|2020-09-09 00:00:00|Краснодарский край,город Краснодар, проспект Чекистов, дом 15/1|ПН-ПТ 00:00-23:59, СБ 00:00-23:59, ВС 00:00-23:59|НЕТ|95.47|45.03074999667274|38.91027000681976
PS817|2020-09-09 00:00:00|Краснодарский край,город Краснодар,улица Красных Партизан, дом 171|ПН-ПТ 09:00-18:30, СБ 09:00-16:00, ВС выходной|НЕТ|96.49|45.05899998594961|38.92691001246072
PS846|2020-09-09 00:00:00|Саратовская область,город Саратов, Волжский район ,улица Соколовая, дом 44/62|ПН-ПТ 09:00-18:00, СБ-ВС выходной|НЕТ|98.91|51.53323131621179|46.05989678675172
PS870|2020-09-09 00:00:00|г Москва, район Проспект Вернадского,улица Удальцова, дом 32 строение 2|ПН-ПТ 09:30-19:00, СБ-ВС выходной|НЕТ|88.77|55.68154999785199|37.49354002880563
PS920|2020-09-09 00:00:00|обл. Воронежская,город Воронеж. г, Воронеж, улица Маршала Жукова,дом , 12а|ПН-ПТ 09:00-18:30, СБ 09:00-14:00, ВС выходной|НЕТ|95.98|51.71492999033765|39.17391003071046
PS924|2020-09-09 00:00:00|Воронежская область,город Воронеж,улица Краснозвездная, дом 42|ПН-ПТ 09:00-18:00, СБ 09:00-13:00, ВС выходной|НЕТ|96.3|51.65456449356291|39.11749093639983
PS937|2020-09-09 00:00:00|г Санкт-Петербург, Приморский район , проспект Авиаконструкторов, дом 21 корпус 1|ПН-ПТ 00:00-23:59, СБ 00:00-23:59, ВС 00:00-23:59|НЕТ|95.82|60.01769999508639|30.23859999619359
PS956|2020-09-09 00:00:00|г. Санкт-Петербург,город САНКТ-ПЕТЕРБУРГ, проспект . Московский,дом , 27|ПН-ПТ 00:00-23:59, СБ 00:00-23:59, ВС 00:00-23:59|НЕТ|93.44|59.91510998453717|30.31770001646024
PS1039|2020-09-10 00:00:00|Астраханская область,город Астрахань,улица Адмиралтейская, дом 15а|ПН-ПТ 00:00-23:59, СБ 00:00-23:59, ВС 00:00-23:59|НЕТ|96.55|46.35084894813954|48.03050636193694
PS1088|2020-09-10 00:00:00|Краснодарский край,город Сочи, Центральный район ,улица Красноармейская, дом 24|ПН-ПТ 09:00-18:00, СБ-ВС выходной|НЕТ|89.89|45.02051332445692|38.97138547589097
PS1106|2020-09-10 00:00:00|Воронежская область,город Воронеж,улица Ворошилова, дом 8В|ПН-ПТ 00:00-23:59, СБ 00:00-23:59, ВС 00:00-23:59|НЕТ|96.0|51.65664998891609|39.18169002941889
PS1125|2020-09-10 00:00:00|г Санкт-Петербург,город Пушкин,улица Оранжерейная, дом 46|ПН-ПТ 00:00-23:59, СБ 00:00-23:59, ВС 00:00-23:59|НЕТ|89.05|59.72591999439797|30.41526000500437
PS1140|2020-09-10 00:00:00|Ярославская область,город Ярославль, Ленинградский проспект , дом 117 корпус 2|ПН-ПТ 09:00-18:30, СБ 09:00-14:00, ВС выходной|НЕТ|92.73|57.69464999795642|39.76680998679566
PS1143|2020-09-10 00:00:00|Ярославская область,город Ярославль, проспект Ленина, дом 30|ПН-ПТ 09:00-18:30, СБ 09:00-15:00, ВС выходной|НЕТ|96.08|57.6325999841246|39.85612997778512
PS1194|2020-09-10 00:00:00|Пензенская область,город Пенза,улица Гагарина, дом 9|ПН-ПТ 09:00-18:00, СБ 09:00-15:00, ВС выходной|НЕТ|95.45|53.22293998357978|45.00013999873778
PS1199|2020-09-10 00:00:00|Пензенская область,город Пенза, Октябрьский район , проспект Строителей, дом 122|ПН-ПТ 00:00-23:59, СБ 00:00-23:59, ВС 00:00-23:59|НЕТ|99.25|53.22142000925794|44.89953000326619
PS1201|2020-09-10 00:00:00|Пензенская область,город Пенза,улица Мира, дом 6|ПН-ПТ 00:00-23:59, СБ 00:00-23:59, ВС 00:00-23:59|НЕТ|95.0|53.18974001947313|44.98238000319449
PS1202|2020-09-10 00:00:00|Самарская область,город Жигулевск,улица Никитина, дом 16|ПН-ПТ 09:30-18:00, СБ-ВС выходной|НЕТ|95.83|53.40690000141362|49.40632000072222
PS1205|2020-09-10 00:00:00|Самарская область,город Тольятти, Автозаводский район , бульвар Космонавтов, дом 6|ПН-ПТ 00:00-23:59, СБ 00:00-23:59, ВС 00:00-23:59|НЕТ|99.28|53.54130997953067|49.32475997569261
PS1210|2020-09-10 00:00:00|Самарская область,город Самара, Советский район ,улица Промышленности, дом 285|ПН-ПТ 00:00-23:59, СБ 00:00-23:59, ВС 00:00-23:59|НЕТ|99.24|53.19647999163553|50.2208300168723
PS1238|2020-09-10 00:00:00|Республика Марий Эл,город Йошкар-Ола,улица Героев Сталинградской битвы, дом 29|ПН-ПТ 00:00-23:59, СБ 00:00-23:59, ВС 00:00-23:59|НЕТ|96.97|56.62629999528932|47.94699000564728
PS1247|2020-09-10 00:00:00|Чувашская республика - Чувашия,город Чебоксары,улица Богдана Хмельницкого, дом 109|ПН-ПТ 00:00-23:59, СБ 00:00-23:59, ВС 00:00-23:59|НЕТ|93.14|56.11276999866254|47.22042995841264
PS1340|2020-09-10 00:00:00|Липецкая область,город Липецк,улица Опытная, дом 17|ПН-ПТ 09:00-18:00, СБ 09:00-16:00, ВС выходной|НЕТ|95.35|52.63290999114184|39.54186996423726
PS537|2020-09-10 00:00:00|Нижегородская область,город Нижний Новгород, Приокский район , проспект Гагарина, дом 180|ПН-ПТ 08:30-17:30, СБ 08:30-15:00, ВС выходной|НЕТ|99.33|56.24155999451949|43.96490999682104
PS539|2020-09-10 00:00:00|Нижегородская область,город Нижний Новгород,улица Бекетова, дом 13|ПН-ВС 05:00-23:59|НЕТ|96.49|56.28974998662702|44.00081999786235
PS555|2020-09-10 00:00:00|Нижегородская область,город Бор,улица Интернациональная, дом 30|ПН-ПТ 08:30-17:30, СБ-ВС выходной|НЕТ|96.36|56.36212998366082|44.06214996430191
PS557|2020-09-10 00:00:00|Нижегородская область,город Нижний Новгород, проспект Гагарина, дом 228|ПН-ПТ 09:00-18:00, СБ-ВС выходной|НЕТ|96.72|56.22826998412063|43.9452899731441
PS559|2020-09-10 00:00:00|Нижегородская область,город Нижний Новгород, Нижегородский район ,улица Родионова, дом 165 корпус 13|ПН-ПТ 10:00-19:00, СБ-ВС выходной|НЕТ|98.47|56.31360999602526|44.06972997080055
PS559|2020-09-10 00:00:00|Нижегородская область,город Нижний Новгород, Нижегородский район ,улица Родионова, дом 165 корпус 13|ПН-ПТ 10:00-19:00, СБ-ВС выходной|НЕТ|98.47|56.31360999602526|44.06972997080055
PS9377|2021-07-10 00:00:00|Нижегородская область,город Нижний Новгород, Нижегородский район ,улица Родионова, дом 165 корпус 13|ПН-ВС 10:00-21:00|ДА|98.47|56.31360999602526|44.06972997080055
PS9377|2021-07-10 00:00:00|Нижегородская область,город Нижний Новгород, Нижегородский район ,улица Родионова, дом 165 корпус 13|ПН-ВС 10:00-21:00|ДА|98.47|56.31360999602526|44.06972997080055
PS657|2020-09-10 00:00:00|г Москва,улица Таллинская, дом 26|ПН-ПТ 00:00-23:59, СБ 00:00-23:59, ВС 00:00-23:59|НЕТ|100.0|55.79991998886686|37.40748001141822
PS693|2020-09-10 00:00:00|Краснодарский край,город Краснодар, Прикубанский округ, поселок Березовый,улица Целиноградская, дом 6А|ПН-ПТ 00:00-23:59, СБ 00:00-23:59, ВС 00:00-23:59|НЕТ|96.85|45.14542000607841|38.99860001122514
PS781|2020-09-10 00:00:00|Республика Татарстан, Зеленодольский район ,город Зеленодольск,улица Столичная, дом 18а|ПН-ПТ 00:00-23:59, СБ 00:00-23:59, ВС 00:00-23:59|НЕТ|99.33|55.85128001675534|48.56446000214873
PS813|2020-09-10 00:00:00|Краснодарский край,город Краснодар,улица Красных Партизан, дом 489|ПН-ПТ 09:00-18:00, СБ 09:00-15:00, ВС выходной|НЕТ|96.49|45.05052001450701|38.96236001465579
PS816|2020-09-10 00:00:00|Краснодарский край,город Краснодар,улицаимениТургенева, дом 150/1|ПН-ПТ 09:00-18:00, СБ 09:00-15:00, ВС выходной|НЕТ|86.14|45.05628183279078|38.960872030998
